Packet Number,SIV,FixType,Latitude,Longitude,Altitude,Year,Month,Day,Hour,Min,Sec,NNV,NEV,NDV,Battery,3v3 Supply,5v Supply,Radio Supply,Analog Internal,Analog External,Altimeter Temp,Digital Internal,Digital Eternal,Pressure,Accel A,Accel Y,Accel z,Pitch,Roll,Yaw
183,0,0,0,0,0,2023,8,14,16,56,39,0,0,0,3.48,3.26,4.98,4.95,37.63,29.17,25.29,29.05,25.16,1007.81,0.11,-0.04,9.75,0.67,-0.22,-177.51,"END
"
Packet Number,SIV,FixType,Latitude,Longitude,Altitude,Year,Month,Day,Hour,Min,Sec,NNV,NEV,NDV,Battery,3v3 Supply,5v Supply,Radio Supply,Analog Internal,Analog External,Altimeter Temp,Digital Internal,Digital Eternal,Pressure,Accel A,Accel Y,Accel z,Pitch,Roll,Yaw
0,0,0,2023,8,14,16,57,55,0,0,0,3.47,3.25,4.98,4.95,39.63,29.72,25.96,30.32,25.70,1007.48,0.00,-0.04,9.83,0.00,-0.22,-177.46,"END
"
Packet Number,SIV,FixType,Latitude,Longitude,Altitude,Year,Month,Day,Hour,Min,Sec,NNV,NEV,NDV,Battery,3v3 Supply,5v Supply,Radio Supply,Analog Internal,Analog External,Altimeter Temp,Digital Internal,Digital Eternal,Pressure,Accel A,Accel Y,Accel z,Pitch,Roll,Yaw
324,0,0,0,0,0,2023,8,14,16,59,0,0,0,0,3.49,3.26,4.98,4.95,40.34,29.95,26.50,31.19,26.18,1007.54,0.00,0.00,9.68,0.00,0.00,-175.73,"END
"
Packet Number,SIV,FixType,Latitude,Longitude,Altitude,Year,Month,Day,Hour,Min,Sec,NNV,NEV,NDV,Battery,3v3 Supply,5v Supply,Radio Supply,Analog Internal,Analog External,Altimeter Temp,Digital Internal,Digital Eternal,Pressure,Accel A,Accel Y,Accel z,Pitch,Roll,Yaw
347,0,0,0,0,0,2023,8,14,16,59,23,0,0,0,3.48,3.25,4.98,4.96,41.00,30.04,26.68,31.48,26.31,1007.48,0.00,0.00,9.71,0.00,0.00,-175.92,"END
"
Packet Number,SIV,FixType,Latitude,Longitude,Altitude,Year,Month,Day,Hour,Min,Sec,NNV,NEV,NDV,Battery,3v3 Supply,5v Supply,Radio Supply,Analog Internal,Analog External,Altimeter Temp,Digital Internal,Digital Eternal,Pressure,Accel A,Accel Y,Accel z,Pitch,Roll,Yaw
386,0,0,0,0,0,2023,8,14,17,0,2,0,0,0,3.40,3.25,4.98,4.96,41.32,30.64,26.96,31.87,26.66,1007.52,-0.04,0.00,9.68,-0.23,0.00,-175.77,"END
"
Packet Number,SIV,FixType,Latitude,Longitude,Altitude,Year,Month,Day,Hour,Min,Sec,NNV,NEV,NDV,Battery,3v3 Supply,5v Supply,Radio Supply,Analog Internal,Analog External,Altimeter Temp,Digital Internal,Digital Eternal,Pressure,Accel A,Accel Y,Accel z,Pitch,Roll,Yaw
431,0,0,0,0,0,2023,8,14,17,0,47,0,0,0,3.48,3.25,4.98,4.96,42.29,30.55,27.29,32.32,26.93,1007.52,0.00,-0.04,9.79,0.00,-0.22,-177.94,"END
"
432,0,0,0,0,0,2023,8,14,17,0,48,0,0,0,3.48,3.27,4.98,4.96,42.29,30.03,27.31,32.36,26.97,1007.56,0.04,0.04,9.75,0.22,0.22,-174.25,"END
"
433,0,0,0,0,0,2023,8,14,17,0,49,0,0,0,3.48,3.25,4.98,4.96,41.39,30.85,27.33,32.38,26.94,1007.50,0.00,0.04,9.75,0.00,0.22,-175.66,"END
"
434,0,0,0,0,0,2023,8,14,17,0,50,0,0,0,3.47,3.27,4.98,4.97,41.50,30.65,27.32,32.38,26.95,1007.55,-0.04,0.00,9.68,-0.23,0.00,-176.09,"END
"
435,0,0,0,0,0,2023,8,14,17,0,51,0,0,0,3.48,3.25,4.98,4.96,41.68,30.37,27.34,32.39,26.93,1007.63,0.00,0.00,9.75,0.00,0.00,-174.38,"END
"
436,0,0,0,0,0,2023,8,14,17,0,52,0,0,0,3.48,3.26,4.98,4.96,41.73,30.03,27.34,32.36,26.98,1007.58,0.00,0.04,9.75,0.00,0.22,-175.71,"END
"
437,0,0,0,0,0,2023,8,14,17,0,53,0,0,0,3.47,3.25,4.98,4.96,41.15,31.58,27.34,32.39,26.94,1007.49,0.04,-0.11,9.94,0.22,-0.66,-178.03,"END
"
438,0,0,0,0,0,2023,8,14,17,0,54,0,0,0,3.48,3.27,4.98,4.96,42.40,29.77,27.37,32.42,26.98,1007.46,-0.04,-0.04,9.64,-0.23,-0.23,-175.51,"END
"
439,0,0,0,0,0,2023,8,14,17,0,55,0,0,0,3.47,3.25,4.98,4.96,41.18,30.55,27.36,32.41,26.98,1007.64,-0.04,-0.04,9.75,-0.22,-0.22,-177.36,"END
"
440,0,0,0,0,0,2023,8,14,17,0,56,0,0,0,3.47,3.25,4.98,4.91,42.17,30.83,27.38,32.45,26.98,1007.41,0.00,-0.04,9.71,0.00,-0.23,-175.03,"END
"
441,0,0,0,0,0,2023,8,14,17,0,57,0,0,0,3.48,3.25,4.98,4.96,42.12,31.32,27.36,32.45,26.99,1007.63,-0.04,-0.04,9.79,-0.22,-0.22,-176.87,"END
"
442,0,0,0,0,0,2023,8,14,17,0,58,0,0,0,3.48,3.25,4.98,4.92,41.60,31.46,27.38,32.44,26.99,1007.38,-0.04,0.04,9.75,-0.22,0.22,-175.55,"END
"
443,0,0,0,0,0,2023,8,14,17,0,59,0,0,0,3.47,3.25,4.98,4.96,42.25,32.04,27.38,32.46,27.04,1007.26,0.04,0.04,9.75,0.22,0.22,-173.88,"END
"
444,0,0,0,0,0,2023,8,14,17,1,0,0,0,0,3.47,3.25,4.98,4.96,40.71,30.19,27.38,32.47,26.97,1007.39,0.00,0.00,9.71,0.00,0.00,-175.81,"END
"
445,0,0,0,0,0,2023,8,14,17,1,1,0,0,0,3.47,3.25,4.98,4.96,42.26,30.68,27.39,32.52,27.00,1007.46,-0.04,0.00,9.71,-0.23,0.00,-175.50,"END
"
446,0,0,0,0,0,2023,8,14,17,1,2,0,0,0,3.46,3.25,4.98,4.96,41.32,30.15,27.40,32.48,26.96,1007.57,0.00,-0.04,9.83,0.00,-0.22,-176.41,"END
"
447,0,0,0,0,0,2023,8,14,17,1,3,0,0,0,3.41,3.25,4.98,4.96,41.90,30.69,27.42,32.48,27.02,1007.50,0.08,0.00,9.75,0.45,0.00,-172.23,"END
"
448,0,0,0,0,0,2023,8,14,17,1,4,0,0,0,3.47,3.26,4.98,4.96,41.45,30.84,27.42,32.49,27.04,1007.51,0.00,-0.04,9.75,0.00,-0.22,-176.63,"END
"
449,0,0,0,0,0,2023,8,14,17,1,5,0,0,0,3.41,3.25,4.98,4.95,42.33,30.40,27.43,32.52,27.02,1007.43,0.00,0.00,9.71,0.00,0.00,-177.09,"END
"
450,0,0,0,0,0,2023,8,14,17,1,6,0,0,0,3.46,3.26,4.98,4.96,41.70,30.30,27.45,32.50,27.02,1007.66,-0.08,0.04,9.71,-0.45,0.23,-174.86,"END
"
451,0,0,0,0,0,2023,8,14,17,1,7,0,0,0,3.40,3.25,4.98,4.96,42.67,31.21,27.44,32.51,27.05,1007.60,-0.04,-0.04,9.94,-0.22,-0.22,-176.45,"END
"
452,0,0,0,0,0,2023,8,14,17,1,8,0,0,0,3.48,3.25,4.98,4.96,42.06,30.56,27.45,32.55,27.05,1007.38,-0.08,0.00,9.87,-0.44,0.00,-175.68,"END
"
453,0,0,0,0,0,2023,8,14,17,1,9,0,0,0,3.43,3.25,4.98,4.95,42.21,31.56,27.47,32.56,27.05,1007.67,-0.04,0.00,9.71,-0.23,0.00,-176.53,"END
"
454,0,0,0,0,0,2023,8,14,17,1,10,0,0,0,3.48,3.25,4.98,4.96,42.77,30.53,27.47,32.55,27.09,1007.50,-0.04,-0.04,9.75,-0.22,-0.22,-176.07,"END
"
455,0,0,0,0,0,2023,8,14,17,1,11,0,0,0,3.48,3.25,4.98,4.96,42.69,31.55,27.47,32.55,27.06,1007.40,0.00,-0.04,9.71,0.00,-0.23,-176.12,"END
"
456,0,0,0,0,0,2023,8,14,17,1,12,0,0,0,3.47,3.25,4.98,4.96,41.95,31.08,27.47,32.58,27.12,1007.63,-0.11,-0.08,9.91,-0.66,-0.44,-177.15,"END
"
457,0,0,0,0,0,2023,8,14,17,1,13,0,0,0,3.44,3.26,4.98,4.96,41.59,31.64,27.47,32.55,27.07,1007.53,0.00,0.04,9.87,0.00,0.22,-175.54,"END
"
Packet Number,SIV,FixType,Latitude,Longitude,Altitude,Year,Month,Day,Hour,Min,Sec,NNV,NEV,NDV,Battery,3v3 Supply,5v Supply,Radio Supply,Analog Internal,Analog External,Altimeter Temp,Digital Internal,Digital Eternal,Pressure,Accel A,Accel Y,Accel z,Pitch,Roll,Yaw
463,0,0,0,0,0,2023,8,14,17,1,19,0,0,0,3.47,3.25,4.98,4.96,42.65,30.06,27.54,32.62,27.13,1007.53,0.00,-0.04,9.71,0.00,-0.23,-176.64,"END
"
464,0,0,0,0,0,2023,8,14,17,1,20,0,0,0,3.47,3.25,4.98,4.95,41.45,30.53,27.53,32.65,27.12,1007.54,-0.08,-0.04,9.68,-0.45,-0.23,-177.08,"END
"
465,0,0,0,0,0,2023,8,14,17,1,21,0,0,0,3.47,3.25,4.98,4.93,42.26,31.47,27.54,32.68,27.10,1007.55,0.00,0.00,9.87,0.00,0.00,-174.89,"END
"
466,0,0,0,0,0,2023,8,14,17,1,22,0,0,0,3.47,3.25,4.98,4.96,41.27,30.19,27.54,32.68,27.15,1007.32,-0.04,0.00,9.75,-0.22,0.00,-174.12,"END
"
467,0,0,0,0,0,2023,8,14,17,1,23,0,0,0,3.48,3.25,4.98,4.96,41.71,31.03,27.53,32.65,27.11,1007.49,0.00,-0.04,9.75,0.00,-0.22,-177.43,"END
"
468,0,0,0,0,0,2023,8,14,17,1,24,0,0,0,3.47,3.26,4.98,4.96,42.97,30.66,27.55,32.69,27.11,1007.53,0.00,0.00,9.71,0.00,0.00,-176.33,"END
"
469,0,0,0,0,0,2023,8,14,17,1,25,0,0,0,3.47,3.25,4.98,4.92,42.05,31.48,27.56,32.66,27.18,1007.38,-0.04,0.04,9.91,-0.22,0.22,-176.22,"END
"
470,0,0,0,0,0,2023,8,14,17,1,26,0,0,0,3.44,3.26,4.98,4.96,41.76,30.52,27.58,32.67,27.18,1007.37,0.00,-0.11,9.94,0.00,-0.66,-177.30,"END
"
471,0,0,0,0,0,2023,8,14,17,1,27,0,0,0,3.47,3.25,4.98,4.96,42.50,31.25,27.58,32.68,27.13,1007.34,0.00,0.04,9.71,0.00,0.23,-174.68,"END
"
472,0,0,0,0,0,2023,8,14,17,1,28,0,0,0,3.44,3.26,4.98,4.96,41.34,30.78,27.60,32.70,27.22,1007.42,-0.04,0.04,9.64,-0.23,0.23,-174.17,"END
"
473,0,0,0,0,0,2023,8,14,17,1,29,0,0,0,3.47,3.25,4.98,4.95,41.84,31.43,27.59,32.70,27.20,1007.46,0.00,0.04,9.68,0.00,0.23,-175.25,"END
"
474,0,0,0,0,0,2023,8,14,17,1,30,0,0,0,3.40,3.25,4.98,4.96,42.51,30.73,27.63,32.70,27.19,1007.62,-0.04,0.00,9.75,-0.22,0.00,-174.40,"END
"
475,0,0,0,0,0,2023,8,14,17,1,31,0,0,0,3.47,3.25,4.98,4.96,42.43,31.54,27.60,32.77,27.16,1007.60,-0.15,-0.04,9.45,-0.93,-0.23,-177.61,"END
"
476,0,0,0,0,0,2023,8,14,17,1,32,0,0,0,3.47,3.27,4.98,4.96,42.57,30.90,27.60,32.72,27.22,1007.44,-0.04,0.04,9.79,-0.22,0.22,-176.23,"END
"
477,0,0,0,0,0,2023,8,14,17,1,33,0,0,0,3.48,3.25,4.98,4.96,41.48,31.54,27.63,32.73,27.25,1007.51,0.00,0.00,9.75,0.00,0.00,-175.81,"END
"
478,0,0,0,0,0,2023,8,14,17,1,34,0,0,0,3.48,3.26,4.98,4.96,42.22,31.01,27.62,32.74,27.16,1007.50,0.00,0.00,9.75,0.00,0.00,-176.05,"END
"
479,0,0,0,0,0,2023,8,14,17,1,35,0,0,0,3.48,3.25,4.98,4.96,42.19,31.75,27.65,32.77,27.24,1007.59,0.00,0.00,9.68,0.00,0.00,-175.16,"END
"
480,0,0,0,0,0,2023,8,14,17,1,36,0,0,0,3.48,3.27,4.98,4.96,42.30,30.81,27.63,32.74,27.27,1007.48,-0.15,0.00,9.79,-0.90,0.00,-176.17,"END
"
481,0,0,0,0,0,2023,8,14,17,1,37,0,0,0,3.47,3.25,4.98,4.95,42.29,31.39,27.64,32.74,27.20,1007.56,0.08,0.00,9.75,0.45,0.00,-176.46,"END
"
482,0,0,0,0,0,2023,8,14,17,1,38,0,0,0,3.48,3.25,4.98,4.93,42.49,31.35,27.65,32.81,27.28,1007.43,-0.08,0.00,9.75,-0.45,0.00,-174.88,"END
"
483,0,0,0,0,0,2023,8,14,17,1,39,0,0,0,3.47,3.25,4.98,4.96,43.02,30.66,27.67,32.78,27.29,1007.42,0.04,-0.11,9.75,0.22,-0.67,-177.82,"END
"
484,0,0,0,0,0,2023,8,14,17,1,40,0,0,0,3.47,3.25,4.99,4.95,42.54,31.38,27.66,32.82,27.27,1007.45,0.00,-0.04,9.64,0.00,-0.23,-174.85,"END
"
485,0,0,0,0,0,2023,8,14,17,1,41,0,0,0,3.47,3.25,4.98,4.96,42.40,31.95,27.68,32.80,27.27,1007.44,-0.15,0.00,9.52,-0.92,0.00,-176.15,"END
"
486,0,0,0,0,0,2023,8,14,17,1,42,0,0,0,3.47,3.26,4.98,4.91,42.88,31.38,27.68,32.81,27.26,1007.18,0.00,0.04,9.71,0.00,0.23,-176.33,"END
"
487,0,0,0,0,0,2023,8,14,17,1,43,0,0,0,3.47,3.25,4.98,4.95,42.20,30.21,27.68,32.82,27.26,1007.59,0.04,-0.04,9.71,0.23,-0.23,-177.73,"END
"
488,0,0,0,0,0,2023,8,14,17,1,44,0,0,0,3.47,3.26,4.98,4.96,40.52,30.84,27.69,32.84,27.32,1007.63,0.00,0.00,9.79,0.00,0.00,-175.90,"END
"
489,0,0,0,0,0,2023,8,14,17,1,45,0,0,0,3.47,3.25,4.98,4.96,42.78,31.12,27.71,32.80,27.28,1007.65,0.00,0.00,9.79,0.00,0.00,-176.84,"END
"
490,0,0,0,0,0,2023,8,14,17,1,46,0,0,0,3.47,3.26,4.98,4.96,41.80,30.59,27.70,32.84,27.31,1007.61,0.00,-0.04,9.75,0.00,-0.22,-176.31,"END
"
491,0,0,0,0,0,2023,8,14,17,1,47,0,0,0,3.41,3.25,4.98,4.96,42.62,31.76,27.70,32.87,27.30,1007.47,-0.04,0.04,9.75,-0.22,0.22,-175.69,"END
"
492,0,0,0,0,0,2023,8,14,17,1,48,0,0,0,3.47,3.26,4.98,4.95,41.13,31.07,27.71,32.84,27.29,1007.70,0.00,-0.04,9.75,0.00,-0.22,-176.10,"END
"
493,0,0,0,0,0,2023,8,14,17,1,49,0,0,0,3.46,3.25,4.98,4.95,41.66,31.56,27.73,32.81,27.37,1007.44,0.00,0.00,9.75,0.00,0.00,-172.23,"END
"
494,0,0,0,0,0,2023,8,14,17,1,50,0,0,0,3.45,3.26,4.98,4.96,41.81,30.52,27.73,32.87,27.33,1007.55,-0.04,0.00,10.02,-0.22,0.00,-175.81,"END
"
495,0,0,0,0,0,2023,8,14,17,1,51,0,0,0,3.40,3.25,4.98,4.96,42.64,31.17,27.74,32.88,27.36,1007.61,0.00,0.04,9.68,0.00,0.23,-173.94,"END
"
496,0,0,0,0,0,2023,8,14,17,1,52,0,0,0,3.46,3.26,4.98,4.96,42.65,32.02,27.76,32.88,27.35,1007.35,0.00,0.04,9.71,0.00,0.23,-175.78,"END
"
497,0,0,0,0,0,2023,8,14,17,1,53,0,0,0,3.48,3.25,4.98,4.96,42.75,31.45,27.75,32.91,27.33,1007.55,-0.04,-0.04,9.68,-0.23,-0.23,-176.09,"END
"
498,0,0,0,0,0,2023,8,14,17,1,54,0,0,0,3.47,3.25,4.98,4.96,41.68,31.15,27.77,32.89,27.40,1007.56,-0.04,-0.04,9.79,-0.22,-0.22,-176.32,"END
"
499,0,0,0,0,0,2023,8,14,17,1,55,0,0,0,3.43,3.26,4.98,4.96,42.22,30.95,27.77,32.93,27.35,1007.45,-0.04,-0.15,9.94,-0.22,-0.88,-178.87,"END
"
500,0,0,0,0,0,2023,8,14,17,1,56,0,0,0,3.47,3.26,4.98,4.96,42.11,30.46,27.77,32.93,27.37,1007.51,0.04,0.00,9.94,0.22,0.00,-175.32,"END
"
501,0,0,0,0,0,2023,8,14,17,1,57,0,0,0,3.47,3.25,4.98,4.96,42.16,31.25,27.78,32.94,27.39,1007.33,0.00,0.04,9.71,0.00,0.23,-175.80,"END
"
502,0,0,0,0,0,2023,8,14,17,1,58,0,0,0,3.48,3.26,4.99,4.96,41.63,30.53,27.77,32.97,27.45,1007.61,0.00,0.00,9.71,0.00,0.00,-177.10,"END
"
503,0,0,0,0,0,2023,8,14,17,1,59,0,0,0,3.48,3.25,4.98,4.90,42.79,31.95,27.78,32.93,27.41,1007.52,-0.04,0.00,9.75,-0.22,0.00,-175.20,"END
"
504,0,0,0,0,0,2023,8,14,17,2,0,0,0,0,3.48,3.25,4.98,4.96,42.62,31.25,27.80,32.98,27.38,1007.46,0.00,-0.11,9.83,0.00,-0.67,-177.10,"END
"
505,0,0,0,0,0,2023,8,14,17,2,1,0,0,0,3.48,3.25,4.98,4.92,42.78,32.19,27.80,33.00,27.39,1007.49,-0.08,-0.08,9.83,-0.45,-0.45,-176.83,"END
"
506,0,0,0,0,0,2023,8,14,17,2,2,0,0,0,3.48,3.25,4.98,4.96,42.56,30.10,27.81,32.98,27.38,1007.52,0.00,0.00,9.68,0.00,0.00,-176.63,"END
"
507,0,0,0,0,0,2023,8,14,17,2,3,0,0,0,3.46,3.25,4.98,4.95,42.67,31.69,27.82,32.98,27.41,1007.40,0.00,0.04,9.71,0.00,0.23,-174.63,"END
"
508,0,0,0,0,0,2023,8,14,17,2,4,0,0,0,3.47,3.25,4.98,4.96,42.54,31.32,27.83,32.97,27.43,1007.54,0.00,0.00,9.71,0.00,0.00,-176.09,"END
"
509,0,0,0,0,0,2023,8,14,17,2,5,0,0,0,3.48,3.25,4.98,4.95,43.37,30.95,27.82,33.00,27.43,1007.72,0.00,0.04,9.64,0.00,0.23,-172.81,"END
"
510,0,0,0,0,0,2023,8,14,17,2,6,0,0,0,3.46,3.25,4.98,4.96,41.61,31.08,27.85,33.01,27.43,1007.76,0.08,0.04,9.71,0.45,0.23,-173.93,"END
"
511,0,0,0,0,0,2023,8,14,17,2,7,0,0,0,3.48,3.25,4.98,4.92,42.01,33.10,27.85,33.02,27.45,1007.34,0.00,0.00,9.75,0.00,0.00,-176.38,"END
"
512,0,0,0,0,0,2023,8,14,17,2,8,0,0,0,3.42,3.26,4.98,4.96,42.14,31.06,27.85,33.02,27.44,1007.29,0.00,0.04,9.79,0.00,0.22,-171.67,"END
"
513,0,0,435526411,-509569672,10107665,2023,8,14,17,2,9,0,0,0,3.47,3.25,4.98,4.96,41.52,30.17,27.85,33.02,27.42,1007.53,0.00,0.00,9.75,0.00,0.00,-175.55,"END
"
514,0,0,433048145,-510388925,10015351,2023,8,14,17,2,10,0,0,0,3.47,3.25,4.98,4.96,42.25,31.62,27.87,33.05,27.46,1007.80,-0.04,-0.04,9.83,-0.22,-0.22,-175.83,"END
"
515,0,0,433072973,-510331496,10016275,2023,8,14,17,2,11,0,0,0,3.47,3.25,4.98,4.96,42.81,31.15,27.87,33.05,27.48,1007.58,-0.04,0.00,9.71,-0.23,0.00,-176.76,"END
"
516,0,0,433097792,-510274062,10017199,2023,8,14,17,2,12,0,0,0,3.37,3.25,4.98,4.96,42.96,30.79,27.88,33.09,27.42,1007.45,-0.04,0.00,9.75,-0.22,0.00,-176.81,"END
"
517,0,0,433122602,-510216621,10018123,2023,8,14,17,2,13,0,0,0,3.47,3.25,4.98,4.95,43.04,32.78,27.87,33.05,27.45,1007.26,0.00,-0.04,9.71,0.00,-0.23,-175.34,"END
"
518,0,0,435646097,-509278425,10112124,2023,8,14,17,2,14,0,0,0,3.46,3.26,4.98,4.96,42.73,31.15,27.88,33.07,27.47,1007.42,-0.04,0.00,9.79,-0.22,0.00,-175.77,"END
"
519,0,0,435670007,-509220159,10113015,2023,8,14,17,2,15,0,0,0,3.47,3.25,4.98,4.95,41.96,32.40,27.89,33.13,27.46,1007.46,0.00,0.00,9.68,0.00,0.00,-175.59,"END
"
520,0,0,435693907,-509161887,10113906,2023,8,14,17,2,16,0,0,0,3.46,3.27,4.98,4.96,43.05,30.63,27.91,33.08,27.48,1007.62,-0.23,0.04,9.71,-1.35,0.23,-173.00,"END
"
521,0,0,433221750,-509986803,10021816,2023,8,14,17,2,17,0,0,0,3.47,3.25,4.98,4.96,42.39,31.03,27.91,33.12,27.47,1007.48,0.00,-0.04,9.79,0.00,-0.22,-176.65,"END
"
522,0,0,430750528,-510806159,9929814,2023,8,14,17,2,18,0,0,0,3.45,3.27,4.98,4.96,42.58,31.25,27.92,33.13,27.49,1007.57,0.00,0.00,10.06,0.00,0.00,-175.73,"END
"
523,0,0,433271270,-509871861,10023660,2023,8,14,17,2,19,0,0,0,3.48,3.25,4.98,4.96,42.20,31.57,27.93,33.14,27.49,1007.55,0.04,0.00,9.83,0.22,0.00,-176.66,"END
"
524,0,0,433296016,-509814381,10024581,2023,8,14,17,2,20,0,0,0,3.47,3.25,4.98,4.91,42.66,31.20,27.92,33.15,27.54,1007.53,-0.04,-0.04,9.79,-0.22,-0.22,-177.43,"END
"
525,0,0,433320752,-509756895,10025503,2023,8,14,17,2,21,0,0,0,3.47,3.25,4.98,4.96,43.09,31.40,27.93,33.13,27.54,1007.47,0.00,0.00,9.48,0.00,0.00,-176.61,"END
"
526,0,0,433345480,-509699404,10026423,2023,8,14,17,2,22,0,0,0,3.48,3.26,4.98,4.96,41.82,30.95,27.96,33.15,27.52,1007.43,0.08,-0.04,9.71,0.45,-0.23,-176.59,"END
"
527,0,0,433370198,-509641907,10027344,2023,8,14,17,2,23,0,0,0,3.48,3.25,4.98,4.95,42.72,31.22,27.95,33.17,27.54,1007.51,0.00,0.00,9.71,0.00,0.00,-175.51,"END
"
528,0,0,430904212,-510466080,9935533,2023,8,14,17,2,24,0,0,0,3.47,3.25,4.98,4.91,42.35,30.74,27.95,33.21,27.58,1007.52,-0.04,-0.04,9.79,-0.22,-0.22,-176.09,"END
"
529,0,0,430929794,-510409379,9936486,2023,8,14,17,2,25,0,0,0,3.48,3.25,4.98,4.96,43.93,32.57,27.96,33.20,27.52,1007.71,-0.04,0.00,9.68,-0.23,0.00,-176.61,"END
"
530,0,0,433444299,-509469382,10030104,2023,8,14,17,2,26,0,0,0,3.47,3.26,4.98,4.95,42.24,30.80,27.96,33.15,27.55,1007.63,0.04,-0.04,9.75,0.22,-0.22,-176.97,"END
"
531,0,0,433468981,-509411862,10031023,2023,8,14,17,2,27,0,0,0,3.48,3.25,4.98,4.96,42.59,31.96,27.97,33.13,27.57,1007.57,0.04,-0.04,9.75,0.22,-0.22,-176.93,"END
"
532,0,0,433493653,-509354337,10031942,2023,8,14,17,2,28,0,0,0,3.48,3.25,4.98,4.95,41.79,31.63,27.98,33.18,27.52,1007.59,0.00,0.00,9.64,0.00,0.00,-176.87,"END
"
533,0,0,431032033,-510182520,9940291,2023,8,14,17,2,29,0,0,0,3.42,3.25,4.98,4.96,42.17,31.69,27.98,33.16,27.59,1007.53,-0.04,0.00,9.79,-0.22,0.00,-176.03,"END
"
534,0,0,431055637,-510119414,9941169,2023,8,14,17,2,30,0,0,0,3.47,3.25,4.98,4.96,42.68,30.87,27.99,33.15,27.62,1007.46,-0.04,0.04,9.75,-0.22,0.22,-175.91,"END
"
535,0,0,433565719,-509175461,10034626,2023,8,14,17,2,31,0,0,0,3.38,3.25,4.98,4.96,43.43,31.19,28.00,33.19,27.58,1007.56,0.04,0.00,9.71,0.23,0.00,-176.34,"END
"
536,0,0,433590355,-509117914,10035543,2023,8,14,17,2,32,0,0,0,3.47,3.26,4.98,4.95,42.67,31.01,28.00,33.22,27.62,1007.49,-0.04,-0.04,9.71,-0.23,-0.23,-176.11,"END
"
537,0,0,433614981,-509060362,10036460,2023,8,14,17,2,33,0,0,0,3.36,3.25,4.98,4.96,43.00,31.31,28.00,33.23,27.62,1007.49,-0.04,0.00,9.64,-0.23,0.00,-177.06,"END
"
538,0,0,433639598,-509002804,10037377,2023,8,14,17,2,34,0,0,0,3.48,3.25,4.98,4.96,42.49,31.50,28.02,33.19,27.54,1007.39,-0.04,0.00,9.75,-0.22,0.00,-175.86,"END
"
539,0,0,433664207,-508945240,10038294,2023,8,14,17,2,35,0,0,0,3.48,3.26,4.98,4.96,43.13,31.25,28.03,33.27,27.62,1007.35,0.04,0.04,9.75,0.22,0.22,-175.73,"END
"
540,0,0,433688806,-508887670,10039210,2023,8,14,17,2,36,0,0,0,3.48,3.25,4.98,4.96,43.22,31.76,28.04,33.23,27.62,1007.57,-0.04,-0.04,9.71,-0.23,-0.23,-176.53,"END
"
541,0,0,433713396,-508830095,10040126,2023,8,14,17,2,37,0,0,0,3.43,3.25,4.98,4.96,42.91,31.95,28.04,33.23,27.63,1007.43,0.00,0.00,9.71,0.00,0.00,-176.47,"END
"
542,0,0,433737976,-508772514,10041041,2023,8,14,17,2,38,0,0,0,3.47,3.25,4.98,4.96,42.95,30.93,28.03,33.25,27.60,1007.48,0.00,-0.04,9.79,0.00,-0.22,-176.37,"END
"
543,0,0,436239190,-507813982,10134224,2023,8,14,17,2,39,0,0,0,3.48,3.25,4.98,4.93,42.85,31.71,28.04,33.27,27.66,1007.54,0.00,0.08,9.68,0.00,0.45,-175.63,"END
"
544,0,0,436262867,-507755580,10135107,2023,8,14,17,2,40,0,0,0,3.48,3.26,4.98,4.96,42.68,31.79,28.06,33.29,27.62,1007.60,0.00,0.00,9.75,0.00,0.00,-175.31,"END
"
545,0,0,436286535,-507697172,10135989,2023,8,14,17,2,41,0,0,0,3.48,3.25,4.98,4.92,43.06,31.62,28.06,33.28,27.62,1007.60,-0.04,-0.04,9.71,-0.23,-0.23,-176.30,"END
"
546,0,0,436310194,-507638759,10136870,2023,8,14,17,2,42,0,0,0,3.47,3.26,4.98,4.97,41.78,31.75,28.07,33.27,27.67,1007.49,-0.04,0.00,9.68,-0.23,0.00,-176.12,"END
"
547,0,0,433860743,-508484526,10045614,2023,8,14,17,2,43,0,0,0,3.48,3.25,4.98,4.91,43.22,31.29,28.06,33.26,27.60,1007.68,0.00,-0.08,9.79,0.00,-0.45,-177.77,"END
"
548,0,0,436357483,-507521917,10138633,2023,8,14,17,2,44,0,0,0,3.46,3.26,4.98,4.96,42.97,31.35,28.08,33.26,27.66,1007.66,-0.04,0.04,9.71,-0.23,0.23,-171.03,"END
"
549,0,0,436381114,-507463487,10139513,2023,8,14,17,2,45,0,0,0,3.47,3.25,4.98,4.94,42.95,31.58,28.07,33.31,27.66,1007.55,0.04,-0.08,9.71,0.23,-0.45,-177.24,"END
"
550,0,0,436404736,-507405053,10140393,2023,8,14,17,2,46,0,0,0,3.48,3.25,4.98,4.96,43.12,31.35,28.09,33.30,27.60,1007.46,0.00,0.00,9.71,0.00,0.00,-176.32,"END
"
551,0,0,436428348,-507346612,10141273,2023,8,14,17,2,47,0,0,0,3.47,3.25,4.98,4.96,42.22,31.78,28.09,33.29,27.65,1007.56,0.00,0.00,10.02,0.00,0.00,-176.88,"END
"
552,0,0,436451951,-507288167,10142153,2023,8,14,17,2,48,0,0,0,3.47,3.25,4.98,4.96,42.19,31.40,28.10,33.30,27.68,1007.75,0.00,-0.04,9.52,0.00,-0.23,-176.89,"END
"
553,0,0,436475545,-507229716,10143032,2023,8,14,17,2,49,0,0,0,3.47,3.25,4.98,4.92,42.63,32.02,28.10,33.30,27.70,1007.65,-0.04,0.04,9.68,-0.23,0.23,-175.94,"END
"
554,0,0,436499129,-507171259,10143911,2023,8,14,17,2,50,0,0,0,3.41,3.26,4.98,4.96,42.79,31.36,28.11,33.35,27.72,1007.54,-0.08,0.00,9.75,-0.45,0.00,-175.70,"END
"
555,0,0,436522704,-507112797,10144790,2023,8,14,17,2,51,0,0,0,3.48,3.25,4.98,4.95,43.35,32.63,28.12,33.35,27.71,1007.51,0.00,0.00,9.79,0.00,0.00,-176.32,"END
"
556,0,0,436546270,-507054329,10145668,2023,8,14,17,2,52,0,0,0,3.47,3.25,4.98,4.96,42.60,31.40,28.12,33.40,27.73,1007.49,-0.04,0.04,9.75,-0.22,0.22,-175.73,"END
"
557,0,0,436569826,-506995856,10146546,2023,8,14,17,2,53,0,0,0,3.47,3.25,4.98,4.96,42.77,31.42,28.12,33.37,27.72,1007.30,0.00,-0.04,9.75,0.00,-0.22,-177.13,"END
"
558,0,0,436593373,-506937378,10147423,2023,8,14,17,2,54,0,0,0,3.47,3.27,4.98,4.96,42.92,31.50,28.13,33.39,27.72,1007.48,-0.04,-0.04,9.75,-0.22,-0.22,-177.13,"END
"
559,0,0,436616911,-506878894,10148301,2023,8,14,17,2,55,0,0,0,3.47,3.25,4.98,4.96,43.09,30.60,28.14,33.37,27.77,1007.43,-0.04,0.00,9.75,-0.22,0.00,-175.13,"END
"
560,0,0,436640440,-506820405,10149177,2023,8,14,17,2,56,0,0,0,3.47,3.27,4.98,4.96,41.80,31.92,28.14,33.39,27.71,1007.58,-0.08,0.04,9.75,-0.45,0.22,-175.16,"END
"
561,0,0,436663959,-506761910,10150054,2023,8,14,17,2,57,0,0,0,3.48,3.25,4.98,4.95,43.56,31.27,28.15,33.40,27.72,1007.46,-0.04,0.00,9.71,-0.23,0.00,-175.52,"END
"
562,0,0,436687469,-506703410,10150930,2023,8,14,17,2,58,0,0,0,3.47,3.27,4.98,4.96,43.09,31.20,28.15,33.41,27.77,1007.32,0.00,0.00,9.91,0.00,0.00,-176.11,"END
"
563,0,0,436710970,-506644904,10151806,2023,8,14,17,2,59,0,0,0,3.48,3.25,4.98,4.96,43.36,31.92,28.16,33.41,27.75,1007.32,0.00,0.04,9.75,0.00,0.22,-177.30,"END
"
564,0,0,436734461,-506586393,10152681,2023,8,14,17,3,0,0,0,0,3.47,3.29,4.98,4.96,43.01,31.13,28.16,33.42,27.72,1007.29,-0.04,0.00,9.71,-0.23,0.00,-175.20,"END
"
565,0,0,439320869,-505561249,10249095,2023,8,14,17,3,1,0,0,0,3.47,3.25,4.98,4.96,42.85,31.61,28.17,33.38,27.73,1007.60,-0.08,0.00,9.60,-0.46,0.00,-176.50,"END
"
566,0,0,439343415,-505501881,10249936,2023,8,14,17,3,2,0,0,0,3.47,3.25,4.98,4.92,43.51,31.40,28.19,33.41,27.77,1007.66,0.00,-0.04,9.75,0.00,-0.22,-175.34,"END
"
567,0,0,439365950,-505442508,10250776,2023,8,14,17,3,3,0,0,0,3.47,3.25,4.98,4.95,43.44,31.68,28.19,33.43,27.78,1007.36,-0.04,0.00,9.68,-0.23,0.00,-175.24,"END
"
568,0,0,439388477,-505383130,10251616,2023,8,14,17,3,4,0,0,0,3.47,3.25,4.98,4.95,43.09,31.62,28.20,33.47,27.80,1007.44,-0.08,0.04,9.71,-0.45,0.23,-173.50,"END
"
569,0,0,436960805,-506252608,10161117,2023,8,14,17,3,5,0,0,0,3.47,3.25,4.98,4.96,42.09,31.36,28.21,33.45,27.78,1007.39,0.00,0.00,9.60,0.00,0.00,-175.75,"END
"
570,0,0,436984201,-506194029,10161989,2023,8,14,17,3,6,0,0,0,3.47,3.25,4.98,4.91,42.57,31.08,28.21,33.45,27.80,1007.51,0.00,0.04,9.64,0.00,0.23,-173.50,"END
"
571,0,0,437007588,-506135444,10162861,2023,8,14,17,3,7,0,0,0,3.47,3.25,4.98,4.96,42.74,31.38,28.22,33.43,27.80,1007.60,0.11,0.00,9.68,0.68,0.00,-175.65,"END
"
572,0,0,439478488,-505145564,10254972,2023,8,14,17,3,8,0,0,0,3.47,3.25,4.98,4.94,43.91,31.55,28.22,33.48,27.78,1007.70,-0.08,-0.04,9.79,-0.45,-0.22,-176.28,"END
"
573,0,0,437054334,-506018258,10164603,2023,8,14,17,3,9,0,0,0,3.48,3.25,4.98,4.96,43.86,31.27,28.23,33.49,27.78,1007.58,0.00,0.04,9.94,0.00,0.22,-174.63,"END
"
574,0,0,437077692,-505959657,10165473,2023,8,14,17,3,10,0,0,0,3.48,3.26,4.98,4.96,42.50,31.29,28.24,33.48,27.80,1007.50,-0.04,0.00,9.71,-0.23,0.00,-176.88,"END
"
575,0,0,437101042,-505901050,10166344,2023,8,14,17,3,11,0,0,0,3.42,3.25,4.98,4.95,42.31,31.60,28.24,33.50,27.80,1007.63,0.00,0.00,9.71,0.00,0.00,-175.96,"END
"
576,0,0,437124382,-505842438,10167214,2023,8,14,17,3,12,0,0,0,3.47,3.26,4.98,4.96,41.52,31.91,28.24,33.52,27.79,1007.43,0.00,-0.08,9.83,0.00,-0.45,-177.00,"END
"
577,0,0,437147713,-505783821,10168083,2023,8,14,17,3,13,0,0,0,3.40,3.25,4.98,4.96,44.60,30.73,28.26,33.49,27.80,1007.49,0.08,-0.04,9.56,0.46,-0.23,-174.00,"END
"
578,0,0,439613221,-504789060,10259996,2023,8,14,17,3,14,0,0,0,3.49,3.25,4.98,4.96,43.17,32.26,28.26,33.52,27.80,1007.35,-0.08,0.04,9.94,-0.44,0.22,-175.95,"END
"
579,0,0,439635644,-504729624,10260832,2023,8,14,17,3,15,0,0,0,3.36,3.25,4.98,4.96,42.72,31.17,28.28,33.52,27.86,1007.53,0.00,0.04,9.75,0.00,0.22,-174.28,"END
"
580,0,0,439884899,-504582610,10270126,2023,8,14,17,3,16,0,0,0,3.48,3.25,4.98,4.96,42.88,31.71,28.28,33.50,27.84,1007.58,0.00,-0.04,9.64,0.00,-0.23,-175.65,"END
"
581,0,0,439907220,-504523089,10270958,2023,8,14,17,3,17,0,0,0,3.48,3.26,4.98,4.96,43.57,30.75,28.27,33.53,27.84,1007.45,0.00,0.00,9.71,0.00,0.00,-175.92,"END
"
582,0,0,439929532,-504463562,10271790,2023,8,14,17,3,18,0,0,0,3.48,3.25,4.98,4.95,41.96,31.15,28.29,33.52,27.85,1007.58,0.00,0.04,9.52,0.00,0.23,-175.73,"END
"
583,0,0,437287503,-505432003,10173293,2023,8,14,17,3,19,0,0,0,3.43,3.25,4.98,4.95,42.51,31.41,28.28,33.57,27.89,1007.34,0.00,0.00,9.68,0.00,0.00,-176.32,"END
"
584,0,0,437310769,-505373347,10174161,2023,8,14,17,3,20,0,0,0,3.47,3.25,4.98,4.96,42.83,31.84,28.30,33.56,27.85,1007.52,-0.04,-0.04,9.75,-0.22,-0.22,-178.74,"END
"
585,0,0,439996409,-504284951,10274284,2023,8,14,17,3,21,0,0,0,3.46,3.25,4.98,4.95,43.62,32.02,28.30,33.55,27.84,1007.53,0.00,0.00,9.60,0.00,0.00,-176.07,"END
"
586,0,0,440018683,-504225404,10275115,2023,8,14,17,3,22,0,0,0,3.47,3.25,4.98,4.96,43.25,31.32,28.31,33.58,27.88,1007.64,0.00,0.04,9.83,0.00,0.22,-174.24,"END
"
587,0,0,437380510,-505197349,10176760,2023,8,14,17,3,23,0,0,0,3.47,3.25,4.98,4.93,43.96,32.45,28.30,33.59,27.90,1007.62,0.00,0.00,9.52,0.00,0.00,-175.25,"END
"
588,0,0,440063202,-504106293,10276775,2023,8,14,17,3,24,0,0,0,3.47,3.25,4.98,4.95,41.75,31.54,28.31,33.57,27.87,1007.57,0.04,0.00,9.75,0.22,0.00,-175.27,"END
"
589,0,0,440085447,-504046730,10277604,2023,8,14,17,3,25,0,0,0,3.48,3.25,4.98,4.93,42.59,32.47,28.33,33.57,27.91,1007.66,-0.08,0.04,9.60,-0.46,0.23,-175.82,"END
"
590,0,0,440107683,-503987162,10278433,2023,8,14,17,3,26,0,0,0,3.47,3.25,4.98,4.96,43.04,31.90,28.34,33.56,27.91,1007.60,0.00,0.00,9.71,0.00,0.00,-175.43,"END
"
591,0,0,437473368,-504962609,10180221,2023,8,14,17,3,27,0,0,0,3.47,3.25,4.98,4.95,43.52,30.87,28.33,33.59,27.94,1007.30,0.04,0.04,9.64,0.23,0.23,-176.49,"END
"
592,0,0,440152126,-503868010,10280091,2023,8,14,17,3,28,0,0,0,3.46,3.26,4.98,4.96,42.99,31.68,28.33,33.64,27.92,1007.44,-0.04,-0.04,9.64,-0.23,-0.23,-176.02,"END
"
593,0,0,442596915,-502853801,10371273,2023,8,14,17,3,29,0,0,0,3.48,3.25,4.98,4.96,42.32,31.09,28.36,33.61,27.94,1007.58,-0.04,0.00,9.71,-0.23,0.00,-175.46,"END
"
594,0,0,440196532,-503748838,10281747,2023,8,14,17,3,30,0,0,0,3.47,3.26,4.98,4.96,42.91,31.68,28.35,33.63,27.88,1007.40,-0.08,0.04,9.68,-0.45,0.23,-171.86,"END
"
595,0,0,442639520,-502733003,10372862,2023,8,14,17,3,31,0,0,0,3.47,3.25,4.98,4.91,44.08,32.28,28.36,33.63,27.90,1007.53,0.00,-0.04,9.91,0.00,-0.22,-176.28,"END
"
596,0,0,442660808,-502672596,10373656,2023,8,14,17,3,32,0,0,0,3.41,3.26,4.98,4.96,42.71,31.22,28.36,33.62,27.95,1007.59,-0.15,0.00,9.75,-0.90,0.00,-171.76,"END
"
597,0,0,442682086,-502612185,10374450,2023,8,14,17,3,33,0,0,0,3.47,3.25,4.98,4.95,43.19,31.29,28.37,33.64,27.92,1007.52,0.04,-0.08,9.71,0.23,-0.45,-177.58,"END
"
598,0,0,442703355,-502551768,10375243,2023,8,14,17,3,34,0,0,0,3.47,3.26,4.98,4.96,43.32,32.21,28.36,33.61,27.97,1007.34,-0.11,0.04,9.79,-0.67,0.22,-176.36,"END
"
599,0,0,442724614,-502491347,10376036,2023,8,14,17,3,35,0,0,0,3.47,3.25,4.98,4.95,42.67,31.71,28.39,33.66,27.95,1007.35,0.00,0.00,9.71,0.00,0.00,-175.71,"END
"
600,0,0,442745864,-502430921,10376829,2023,8,14,17,3,36,0,0,0,3.46,3.27,4.98,4.95,42.70,31.16,28.38,33.66,27.96,1007.50,-0.04,-0.04,9.71,-0.23,-0.23,-175.28,"END
"
601,0,0,442767104,-502370489,10377621,2023,8,14,17,3,37,0,0,0,3.47,3.25,4.98,4.95,44.04,31.75,28.38,33.67,27.94,1007.48,0.00,-0.04,9.68,0.00,-0.23,-174.75,"END
"
602,0,0,442788334,-502310053,10378413,2023,8,14,17,3,38,0,0,0,3.47,3.27,4.98,4.97,42.35,31.68,28.41,33.69,27.99,1007.64,-0.04,0.00,9.79,-0.22,0.00,-175.69,"END
"
603,0,0,442809555,-502249611,10379205,2023,8,14,17,3,39,0,0,0,3.47,3.25,4.98,4.96,44.32,32.27,28.41,33.69,27.99,1007.46,0.00,0.00,9.71,0.00,0.00,-176.83,"END
"
604,0,0,440417991,-503152664,10290005,2023,8,14,17,3,40,0,0,0,3.47,3.26,4.98,4.96,42.90,31.22,28.42,33.70,27.98,1007.34,-0.08,-0.04,9.60,-0.46,-0.23,-176.83,"END
"
605,0,0,442851968,-502128714,10380787,2023,8,14,17,3,41,0,0,0,3.47,3.25,4.98,4.95,42.71,31.06,28.41,33.69,27.96,1007.51,0.00,0.11,9.48,0.00,0.69,-173.41,"END
"
606,0,0,442873160,-502068258,10381577,2023,8,14,17,3,42,0,0,0,3.48,3.27,4.98,4.96,42.79,31.46,28.42,33.69,28.00,1007.53,0.00,0.04,9.71,0.00,0.23,-175.41,"END
"
607,0,0,442894343,-502007797,10382368,2023,8,14,17,3,43,0,0,0,3.47,3.25,4.98,4.96,42.78,32.02,28.43,33.69,28.04,1007.49,0.04,0.00,9.71,0.23,0.00,-175.34,"END
"
608,0,0,442915516,-501947330,10383157,2023,8,14,17,3,44,0,0,0,3.47,3.26,4.98,4.91,43.17,31.70,28.43,33.71,27.98,1007.50,-0.04,0.00,9.68,-0.23,0.00,-174.88,"END
"
609,0,0,445687502,-500771568,10486578,2023,8,14,17,3,45,0,0,0,3.47,3.25,4.98,4.96,43.59,31.36,28.44,33.70,28.03,1007.41,0.00,-0.04,9.52,0.00,-0.23,-177.21,"END
"
610,0,0,443309646,-501684182,10397860,2023,8,14,17,3,46,0,0,0,3.45,3.25,4.98,4.96,43.68,32.31,28.44,33.70,27.95,1007.48,-0.04,0.04,10.02,-0.22,0.22,-175.63,"END
"
611,0,0,443330660,-501623583,10398644,2023,8,14,17,3,47,0,0,0,3.48,3.25,4.98,4.95,44.25,32.80,28.45,33.72,28.07,1007.56,-0.04,-0.04,9.75,-0.22,-0.22,-176.62,"END
"
612,0,0,443351664,-501562979,10399428,2023,8,14,17,3,48,0,0,0,3.47,3.25,4.98,4.91,44.11,31.41,28.45,33.76,27.98,1007.50,0.00,0.04,9.75,0.00,0.22,-173.97,"END
"
613,0,0,440616496,-502615667,10297408,2023,8,14,17,3,49,0,0,0,3.47,3.24,4.98,4.96,42.36,31.73,28.46,33.74,28.01,1007.47,-0.04,-0.04,9.68,-0.23,-0.23,-172.89,"END
"
614,0,0,440638505,-502555975,10298228,2023,8,14,17,3,50,0,0,0,3.49,3.26,4.98,4.93,44.04,31.58,28.48,33.73,28.07,1007.23,0.00,-0.04,9.71,0.00,-0.23,-174.56,"END
"
615,0,0,443063458,-501523929,10388676,2023,8,14,17,3,51,0,0,0,3.49,3.25,4.98,4.96,43.38,31.15,28.48,33.77,28.06,1007.67,0.04,-0.04,9.64,0.23,-0.23,-176.15,"END
"
616,0,0,443084554,-501463423,10389463,2023,8,14,17,3,52,0,0,0,3.47,3.25,4.98,4.95,42.99,31.64,28.48,33.74,28.04,1007.49,0.00,0.04,9.75,0.00,0.22,-173.68,"END
"
617,0,0,443456539,-501259886,10403340,2023,8,14,17,3,53,0,0,0,3.44,3.25,4.98,4.96,43.57,30.45,28.48,33.74,28.07,1007.49,-0.04,0.00,9.71,-0.23,0.00,-175.13,"END
"
618,0,0,445868341,-500218793,10493325,2023,8,14,17,3,54,0,0,0,3.47,3.25,4.98,4.93,43.07,31.22,28.48,33.77,28.06,1007.43,0.00,-0.11,9.98,0.00,-0.66,-176.17,"END
"
619,0,0,443147786,-501281876,10391822,2023,8,14,17,3,55,0,0,0,3.43,3.25,4.98,4.95,44.41,31.82,28.51,33.77,28.06,1007.50,-0.08,0.04,9.68,-0.45,0.23,-171.56,"END
"
620,0,0,445908420,-500095902,10494821,2023,8,14,17,3,56,0,0,0,3.47,3.26,4.98,4.96,42.62,32.20,28.50,33.78,28.06,1007.71,0.04,-0.08,9.68,0.23,-0.45,-176.78,"END
"
621,0,0,445928445,-500034450,10495568,2023,8,14,17,3,57,0,0,0,3.38,3.26,4.98,4.96,43.27,31.50,28.51,33.79,28.09,1007.50,0.00,-0.04,9.75,0.00,-0.22,-177.23,"END
"
622,0,0,445948460,-499972992,10496315,2023,8,14,17,3,58,0,0,0,3.46,3.25,4.98,4.96,43.46,29.98,28.50,33.84,28.11,1007.34,-0.08,-0.04,9.83,-0.45,-0.22,-176.33,"END
"
623,0,0,445968466,-499911531,10497062,2023,8,14,17,3,59,0,0,0,3.48,3.27,4.98,4.95,42.08,31.05,28.52,33.77,28.09,1007.63,0.00,0.00,9.75,0.00,0.00,-176.05,"END
"
624,0,0,445988462,-499850064,10497808,2023,8,14,17,4,0,0,0,0,3.47,3.26,4.98,4.95,42.92,32.08,28.52,33.80,28.10,1007.53,0.00,0.04,9.52,0.00,0.23,-174.40,"END
"
625,0,0,446008448,-499788593,10498554,2023,8,14,17,4,1,0,0,0,3.40,3.25,4.98,4.96,43.09,32.64,28.53,33.77,28.07,1007.54,0.00,0.00,9.64,0.00,0.00,-175.05,"END
"
626,0,0,446028424,-499727117,10499299,2023,8,14,17,4,2,0,0,0,3.48,3.25,4.98,4.96,44.15,31.18,28.55,33.86,28.09,1007.55,0.00,0.00,9.75,0.00,0.00,-175.71,"END
"
627,0,0,446048391,-499665636,10500044,2023,8,14,17,4,3,0,0,0,3.47,3.25,4.98,4.95,42.45,31.29,28.54,33.85,28.12,1007.59,-0.08,0.04,9.75,-0.45,0.22,-175.65,"END
"
628,0,0,446068348,-499604151,10500789,2023,8,14,17,4,4,0,0,0,3.47,3.25,4.98,4.96,43.37,32.10,28.54,33.85,28.12,1007.58,0.00,0.04,9.48,0.00,0.23,-175.79,"END
"
629,0,0,446088295,-499542661,10501533,2023,8,14,17,4,5,0,0,0,3.48,3.25,4.98,4.93,42.64,32.54,28.56,33.86,28.07,1007.56,0.11,0.00,9.71,0.68,0.00,-177.70,"END
"
630,0,0,446108233,-499481167,10502277,2023,8,14,17,4,6,0,0,0,3.48,3.25,4.98,4.96,43.45,32.50,28.57,33.84,28.13,1007.49,0.00,0.00,9.75,0.00,0.00,-174.94,"END
"
631,0,0,446128161,-499419667,10503021,2023,8,14,17,4,7,0,0,0,3.48,3.25,4.98,4.91,43.69,32.21,28.56,33.83,28.15,1007.60,0.04,0.00,9.79,0.22,0.00,-176.39,"END
"
632,0,0,446148079,-499358163,10503764,2023,8,14,17,4,8,0,0,0,3.47,3.26,4.98,4.96,43.37,31.45,28.56,33.91,28.12,1007.52,-0.04,0.00,9.79,-0.22,0.00,-173.49,"END
"
633,0,0,446167987,-499296655,10504507,2023,8,14,17,4,9,0,0,0,3.48,3.25,4.98,4.96,44.21,31.49,28.58,33.88,28.16,1007.52,0.00,-0.04,9.75,0.00,-0.22,-177.41,"END
"
634,0,0,443811320,-500228453,10416576,2023,8,14,17,4,10,0,0,0,3.47,3.26,4.98,4.96,43.20,31.82,28.59,33.88,28.13,1007.53,-0.04,0.00,9.68,-0.23,0.00,-176.31,"END
"
635,0,0,443832103,-500167736,10417351,2023,8,14,17,4,11,0,0,0,3.47,3.25,4.98,4.96,43.81,31.55,28.58,33.89,28.16,1007.49,0.00,0.00,9.68,0.00,0.00,-175.18,"END
"
636,0,0,446227653,-499112101,10506733,2023,8,14,17,4,12,0,0,0,3.48,3.25,4.98,4.96,43.07,32.06,28.60,33.86,28.20,1007.37,0.04,-0.04,9.68,0.23,-0.23,-171.60,"END
"
637,0,0,443873640,-500046288,10418901,2023,8,14,17,4,13,0,0,0,3.47,3.25,4.98,4.90,42.57,31.52,28.60,33.88,28.16,1007.58,-0.04,0.04,9.56,-0.23,0.23,-175.41,"END
"
638,0,0,443894394,-499985557,10419675,2023,8,14,17,4,14,0,0,0,3.39,3.25,4.98,4.96,44.72,31.81,28.60,33.91,28.15,1007.50,-0.04,0.08,9.71,-0.23,0.45,-173.18,"END
"
639,0,0,443915138,-499924821,10420449,2023,8,14,17,4,15,0,0,0,3.47,3.25,4.98,4.96,42.76,32.55,28.61,33.92,28.13,1007.49,0.00,0.00,9.71,0.00,0.00,-175.51,"END
"
640,0,0,443935873,-499864080,10421223,2023,8,14,17,4,16,0,0,0,3.47,3.25,4.98,4.96,43.04,31.85,28.61,33.88,28.17,1007.49,-0.04,0.04,9.75,-0.22,0.22,-174.30,"END
"
641,0,0,446326902,-498804417,10510437,2023,8,14,17,4,17,0,0,0,3.47,3.25,4.98,4.96,44.27,32.52,28.62,33.94,28.13,1007.59,0.00,0.00,9.71,0.00,0.00,-176.04,"END
"
642,0,0,446831719,-498537182,10529275,2023,8,14,17,4,18,0,0,0,3.40,3.26,4.98,4.96,43.12,31.61,28.63,33.88,28.15,1007.51,-0.04,-0.04,9.75,-0.22,-0.22,-174.98,"END
"
643,0,0,449206905,-497470148,10617916,2023,8,14,17,4,19,0,0,0,3.48,3.25,4.98,4.96,43.46,31.67,28.63,33.91,28.16,1007.62,0.00,-0.04,9.71,0.00,-0.23,-178.26,"END
"
644,0,0,446870965,-498413738,10530739,2023,8,14,17,4,20,0,0,0,3.42,3.26,4.98,4.96,43.63,31.68,28.63,33.93,28.22,1007.52,-0.04,-0.08,9.75,-0.22,-0.45,-176.70,"END
"
645,0,0,446890573,-498352009,10531471,2023,8,14,17,4,21,0,0,0,3.47,3.25,4.98,4.96,43.20,31.92,28.65,33.94,28.19,1007.65,0.00,0.04,9.71,0.00,0.23,-175.52,"END
"
646,0,0,446910171,-498290276,10532202,2023,8,14,17,4,22,0,0,0,3.47,3.27,4.98,4.96,43.42,32.04,28.64,33.92,28.14,1007.51,-0.04,0.00,9.41,-0.23,0.00,-175.44,"END
"
647,0,0,446929759,-498228538,10532933,2023,8,14,17,4,23,0,0,0,3.47,3.25,4.98,4.95,42.96,31.50,28.66,33.96,28.22,1007.43,-0.08,0.04,9.75,-0.45,0.22,-174.48,"END
"
648,0,0,446949338,-498166795,10533664,2023,8,14,17,4,24,0,0,0,3.42,3.27,4.98,4.96,42.68,31.78,28.66,33.97,28.27,1007.66,-0.04,-0.04,9.83,-0.22,-0.22,-176.85,"END
"
649,0,0,446968906,-498105048,10534394,2023,8,14,17,4,25,0,0,0,3.48,3.25,4.98,4.96,42.79,32.18,28.66,33.90,28.27,1007.48,-0.04,0.00,9.75,-0.22,0.00,-175.63,"END
"
650,0,0,446988466,-498043296,10535124,2023,8,14,17,4,26,0,0,0,3.47,3.26,4.98,4.91,44.03,31.46,28.66,33.94,28.24,1007.55,-0.04,0.00,9.75,-0.22,0.00,-174.59,"END
"
651,0,0,447008015,-497981540,10535854,2023,8,14,17,4,27,0,0,0,3.47,3.25,4.98,4.96,42.66,32.78,28.66,33.97,28.26,1007.49,0.00,0.04,9.52,0.00,0.23,-175.96,"END
"
652,0,0,450007663,-496632946,10647802,2023,8,14,17,4,28,0,0,0,3.46,3.27,4.98,4.96,43.48,32.28,28.69,33.96,28.29,1007.76,0.00,0.00,9.68,0.00,0.00,-176.84,"END
"
653,0,0,450026058,-496570166,10648489,2023,8,14,17,4,29,0,0,0,3.47,3.25,4.98,4.96,43.26,32.15,28.69,33.98,28.27,1007.52,-0.04,0.00,9.75,-0.22,0.00,-176.54,"END
"
654,0,0,450044444,-496507382,10649175,2023,8,14,17,4,30,0,0,0,3.48,3.25,4.98,4.93,42.40,31.47,28.68,34.01,28.27,1007.63,-0.04,0.00,9.75,-0.22,0.00,-175.90,"END
"
655,0,0,447086114,-497734468,10538768,2023,8,14,17,4,31,0,0,0,3.48,3.25,4.98,4.95,44.66,32.50,28.70,34.01,28.23,1007.43,-0.15,0.04,9.56,-0.92,0.23,-174.17,"END
"
656,0,0,444266322,-498891563,10433551,2023,8,14,17,4,32,0,0,0,3.48,3.25,4.98,4.93,42.80,32.59,28.71,33.98,28.25,1007.71,-0.04,0.00,9.71,-0.23,0.00,-175.94,"END
"
657,0,0,447125105,-497610905,10540223,2023,8,14,17,4,33,0,0,0,3.47,3.25,4.98,4.96,42.35,31.76,28.70,33.97,28.28,1007.60,0.00,0.00,9.71,0.00,0.00,-174.99,"END
"
658,0,0,447144586,-497549116,10540950,2023,8,14,17,4,34,0,0,0,3.49,3.26,4.98,4.96,42.87,31.71,28.71,34.01,28.27,1007.65,-0.04,-0.04,9.71,-0.23,-0.23,-176.34,"END
"
659,0,0,444328006,-498709078,10435853,2023,8,14,17,4,35,0,0,0,3.43,3.25,4.98,4.96,44.23,31.78,28.71,34.02,28.28,1007.64,0.00,0.00,9.83,0.00,0.00,-174.12,"END
"
660,0,0,447183519,-497425526,10542403,2023,8,14,17,4,36,0,0,0,3.47,3.26,4.98,4.94,43.22,31.84,28.72,34.03,28.30,1007.65,-0.15,0.00,9.75,-0.90,0.00,-176.39,"END
"
661,0,0,447202970,-497363723,10543129,2023,8,14,17,4,37,0,0,0,3.39,3.25,4.98,4.96,43.16,32.04,28.74,34.05,28.30,1007.79,0.00,0.04,9.79,0.00,0.22,-171.25,"END
"
662,0,0,447222412,-497301916,10543854,2023,8,14,17,4,38,0,0,0,3.46,3.25,4.98,4.96,43.99,32.10,28.72,34.02,28.25,1007.51,-0.08,-0.08,9.68,-0.45,-0.45,-175.84,"END
"
663,0,0,447241844,-497240105,10544580,2023,8,14,17,4,39,0,0,0,3.40,3.25,4.98,4.96,44.03,33.30,28.74,34.05,28.34,1007.36,0.00,-0.08,9.75,0.00,-0.45,-176.40,"END
"
664,0,0,450227755,-495879303,10656017,2023,8,14,17,4,40,0,0,0,3.47,3.25,4.98,4.96,42.98,30.65,28.76,34.09,28.26,1007.36,0.11,0.04,9.91,0.66,0.22,-175.52,"END
"
665,0,0,450246031,-495816471,10656699,2023,8,14,17,4,41,0,0,0,3.48,3.26,4.98,4.95,43.60,32.42,28.75,34.04,28.29,1007.70,-0.04,0.00,9.71,-0.23,0.00,-175.40,"END
"
666,0,0,450264297,-495753635,10657380,2023,8,14,17,4,42,0,0,0,3.46,3.25,4.98,4.96,43.06,31.28,28.73,34.05,28.34,1007.44,0.04,-0.04,9.68,0.23,-0.23,-175.91,"END
"
667,0,0,450282554,-495690795,10658062,2023,8,14,17,4,43,0,0,0,3.39,3.25,4.98,4.96,43.68,31.67,28.77,34.04,28.31,1007.45,0.00,-0.08,9.68,0.00,-0.45,-175.92,"END
"
668,0,0,450300801,-495627951,10658743,2023,8,14,17,4,44,0,0,0,3.48,3.25,4.98,4.95,43.76,32.10,28.76,34.08,28.36,1007.69,-0.04,0.00,9.64,-0.23,0.00,-176.26,"END
"
669,0,0,450319037,-495565102,10659424,2023,8,14,17,4,45,0,0,0,3.46,3.25,4.98,4.96,43.67,31.86,28.77,34.08,28.33,1007.62,-0.11,-0.04,9.71,-0.68,-0.23,-177.06,"END
"
670,0,0,450337264,-495502249,10660104,2023,8,14,17,4,46,0,0,0,3.47,3.26,4.98,4.96,43.71,32.02,28.78,34.02,28.32,1007.46,0.00,0.00,9.71,0.00,0.00,-174.46,"END
"
671,0,0,450355481,-495439392,10660784,2023,8,14,17,4,47,0,0,0,3.47,3.25,4.98,4.94,43.87,33.54,28.79,34.10,28.37,1007.63,0.04,0.00,9.75,0.22,0.00,-175.86,"END
"
672,0,0,450373688,-495376530,10661463,2023,8,14,17,4,48,0,0,0,3.48,3.25,4.98,4.96,43.29,32.11,28.78,34.09,28.36,1007.77,-0.04,-0.08,9.75,-0.22,-0.45,-179.08,"END
"
673,0,0,450391885,-495313665,10662142,2023,8,14,17,4,49,0,0,0,3.48,3.25,4.98,4.91,44.20,32.37,28.79,34.11,28.39,1007.43,-0.04,0.08,9.75,-0.22,0.45,-175.32,"END
"
674,0,0,447454951,-496559878,10552532,2023,8,14,17,4,50,0,0,0,3.46,3.25,4.98,4.96,43.57,31.65,28.81,34.09,28.34,1007.45,-0.04,0.00,9.75,-0.22,0.00,-171.12,"END
"
675,0,0,450428249,-495187920,10663500,2023,8,14,17,4,51,0,0,0,3.47,3.25,4.98,4.93,43.34,33.22,28.81,34.13,28.39,1007.58,-0.04,-0.04,9.71,-0.23,-0.23,-176.83,"END
"
676,0,0,450446416,-495125042,10664178,2023,8,14,17,4,52,0,0,0,3.47,3.25,4.98,4.96,43.85,32.11,28.82,34.05,28.35,1007.32,-0.04,0.04,9.79,-0.22,0.22,-173.82,"END
"
677,0,0,453561164,-493670279,10780432,2023,8,14,17,4,53,0,0,0,3.46,3.25,4.98,4.96,42.93,31.48,28.81,34.13,28.40,1007.59,-0.04,-0.04,9.91,-0.22,-0.22,-175.83,"END
"
678,0,0,453578115,-493606328,10781065,2023,8,14,17,4,54,0,0,0,3.47,3.25,4.98,4.95,43.68,32.17,28.82,34.12,28.40,1007.34,-0.04,0.00,9.75,-0.22,0.00,-175.02,"END
"
679,0,0,453595055,-493542372,10781697,2023,8,14,17,4,55,0,0,0,3.47,3.25,4.98,4.90,42.97,31.80,28.83,34.17,28.43,1007.71,0.00,0.00,9.75,0.00,0.00,-176.52,"END
"
680,0,0,453611986,-493478413,10782329,2023,8,14,17,4,56,0,0,0,3.40,3.25,4.98,4.96,43.64,31.57,28.83,34.13,28.38,1007.49,-0.04,0.00,9.75,-0.22,0.00,-171.12,"END
"
681,0,0,456876022,-491930811,10904150,2023,8,14,17,4,57,0,0,0,3.48,3.25,4.98,4.96,43.44,33.37,28.85,34.16,28.37,1007.58,-0.08,0.00,9.79,-0.45,0.00,-175.04,"END
"
682,0,0,453645817,-493350483,10783592,2023,8,14,17,4,58,0,0,0,3.47,3.25,4.98,4.96,43.44,31.75,28.85,34.15,28.38,1007.50,-0.04,0.00,9.75,-0.22,0.00,-175.20,"END
"
683,0,0,451262388,-494374277,10694633,2023,8,14,17,4,59,0,0,0,3.47,3.25,4.98,4.96,43.33,31.15,28.84,34.19,28.41,1007.53,0.04,-0.08,9.75,0.22,-0.45,-176.59,"END
"
684,0,0,451280208,-494311128,10695298,2023,8,14,17,5,0,0,0,0,3.47,3.27,4.98,4.96,43.71,32.72,28.85,34.16,28.39,1007.41,0.00,0.04,9.75,0.00,0.22,-175.44,"END
"
685,0,0,451298019,-494247975,10695963,2023,8,14,17,5,1,0,0,0,3.47,3.25,4.98,4.96,45.08,32.78,28.86,34.19,28.41,1007.45,-0.08,0.00,9.68,-0.45,0.00,-176.66,"END
"
686,0,0,456954171,-491605319,10907066,2023,8,14,17,5,2,0,0,0,3.43,3.26,4.98,4.96,44.00,32.53,28.86,34.17,28.42,1007.45,-0.04,-0.08,9.75,-0.22,-0.45,-175.43,"END
"
687,0,0,451333611,-494121656,10697291,2023,8,14,17,5,3,0,0,0,3.47,3.25,4.98,4.96,43.83,31.79,28.86,34.18,28.43,1007.39,0.04,-0.04,9.68,0.23,-0.23,-177.01,"END
"
688,0,0,454614407,-492568886,10819743,2023,8,14,17,5,4,0,0,0,3.47,3.27,4.98,4.95,44.21,31.94,28.87,34.20,28.42,1007.53,0.08,0.00,9.75,0.45,0.00,-176.07,"END
"
689,0,0,454630909,-492504592,10820359,2023,8,14,17,5,5,0,0,0,3.47,3.25,4.98,4.96,44.39,32.28,28.88,34.21,28.45,1007.64,-0.04,-0.08,9.71,-0.23,-0.45,-178.27,"END
"
690,0,0,457016505,-491344861,10909393,2023,8,14,17,5,6,0,0,0,3.49,3.26,4.98,4.95,43.46,32.73,28.88,34.21,28.45,1007.85,0.04,-0.04,9.75,0.22,-0.22,-176.72,"END
"
691,0,0,454663883,-492375992,10821590,2023,8,14,17,5,7,0,0,0,3.47,3.25,4.98,4.95,44.16,33.47,28.90,34.23,28.44,1007.52,0.00,0.00,9.79,0.00,0.00,-175.77,"END
"
692,0,0,458110652,-490718770,10950224,2023,8,14,17,5,8,0,0,0,3.47,3.25,4.98,4.91,43.92,32.13,28.89,34.21,28.47,1007.56,0.00,0.00,9.75,0.00,0.00,-175.73,"END
"
693,0,0,454696816,-492247377,10822819,2023,8,14,17,5,9,0,0,0,3.48,3.25,4.98,4.95,43.70,33.11,28.89,34.23,28.48,1007.51,0.00,0.04,9.68,0.00,0.23,-174.88,"END
"
694,0,0,454713267,-492183064,10823433,2023,8,14,17,5,10,0,0,0,3.47,3.26,4.98,4.96,43.41,32.41,28.91,34.24,28.45,1007.65,0.04,0.00,9.71,0.23,0.00,-175.97,"END
"
695,0,0,457094191,-491019208,10912292,2023,8,14,17,5,11,0,0,0,3.47,3.25,4.98,4.96,42.96,33.16,28.90,34.22,28.45,1007.43,-0.04,-0.15,9.94,-0.22,-0.88,-177.58,"END
"
696,0,0,457109697,-490954067,10912871,2023,8,14,17,5,12,0,0,0,3.49,3.25,4.98,4.91,43.67,33.01,28.90,34.27,28.45,1007.31,-0.04,-0.04,9.71,-0.23,-0.23,-176.31,"END
"
697,0,0,460518058,-489290294,11040052,2023,8,14,17,5,13,0,0,0,3.48,3.25,4.98,4.96,42.88,31.00,28.92,34.24,28.49,1007.60,0.00,0.00,9.79,0.00,0.00,-175.47,"END
"
698,0,0,460532213,-489223960,11040580,2023,8,14,17,5,14,0,0,0,3.47,3.25,4.98,4.93,44.17,32.15,28.92,34.24,28.46,1007.46,-0.04,0.11,9.75,-0.22,0.67,-173.49,"END
"
699,0,0,464115135,-487449746,11174229,2023,8,14,17,5,15,0,0,0,3.48,3.25,4.98,4.95,44.10,32.99,28.91,34.25,28.48,1007.59,0.00,0.00,9.75,0.00,0.00,-177.14,"END
"
700,0,0,464127865,-487382149,11174703,2023,8,14,17,5,16,0,0,0,3.46,3.25,4.98,4.96,42.49,32.09,28.94,34.25,28.48,1007.64,-0.04,-0.04,9.75,-0.22,-0.22,-175.46,"END
"
701,0,0,467899052,-485486083,11315300,2023,8,14,17,5,17,0,0,0,3.43,3.25,4.98,4.95,43.76,32.01,28.94,34.27,28.48,1007.51,0.04,0.00,9.71,0.23,0.00,-175.74,"END
"
702,0,0,471875213,-483456560,11463429,2023,8,14,17,5,18,0,0,0,3.47,3.25,4.98,4.93,43.74,32.63,28.94,34.27,28.50,1007.46,0.04,0.04,9.75,0.22,0.22,-174.46,"END
"
703,0,0,467921488,-485348208,11316136,2023,8,14,17,5,19,0,0,0,3.44,3.26,4.98,4.96,43.81,31.76,28.95,34.26,28.54,1007.51,-0.04,0.00,9.98,-0.22,0.00,-175.22,"END
"
704,0,0,467932689,-485279266,11316554,2023,8,14,17,5,20,0,0,0,3.47,3.25,4.98,4.95,43.89,32.34,28.96,34.30,28.52,1007.58,0.00,0.04,9.87,0.00,0.22,-174.33,"END
"
705,0,0,467943880,-485210323,11316971,2023,8,14,17,5,21,0,0,0,3.43,3.25,4.98,4.96,44.65,32.91,28.96,34.31,28.52,1007.57,-0.08,0.04,9.71,-0.45,0.23,-173.40,"END
"
706,0,0,467955060,-485141377,11317387,2023,8,14,17,5,22,0,0,0,3.47,3.25,4.98,4.97,44.68,33.19,28.96,34.27,28.58,1007.56,-0.08,0.04,9.68,-0.45,0.23,-173.87,"END
"
707,0,0,467966229,-485072429,11317803,2023,8,14,17,5,23,0,0,0,3.48,3.26,4.98,4.96,44.38,32.17,28.97,34.29,28.54,1007.48,0.04,-0.08,9.75,0.22,-0.45,-177.57,"END
"
708,0,0,467977387,-485003479,11318219,2023,8,14,17,5,24,0,0,0,3.48,3.26,4.97,4.96,43.41,32.55,28.98,34.32,28.50,1007.46,-0.04,0.00,10.02,-0.22,0.00,-175.17,"END
"
709,0,0,467988534,-484934526,11318635,2023,8,14,17,5,25,0,0,0,3.40,3.25,4.98,4.96,44.19,33.27,28.99,34.29,28.61,1007.51,-0.08,0.00,9.71,-0.45,0.00,-175.72,"END
"
710,0,0,467999671,-484865571,11319050,2023,8,14,17,5,26,0,0,0,3.47,3.25,4.98,4.96,44.11,32.42,28.99,34.31,28.55,1007.50,-0.04,-0.04,9.75,-0.22,-0.22,-175.69,"END
"
711,0,0,468010796,-484796614,11319464,2023,8,14,17,5,27,0,0,0,3.48,3.26,4.98,4.96,45.23,33.46,29.00,34.27,28.59,1007.53,-0.08,-0.04,9.79,-0.45,-0.22,-176.77,"END
"
712,0,0,468021911,-484727655,11319879,2023,8,14,17,5,28,0,0,0,3.46,3.26,4.98,4.96,43.94,32.50,28.99,34.28,28.57,1007.79,0.04,0.04,9.75,0.22,0.22,-175.41,"END
"
713,0,0,464292375,-486503145,11180838,2023,8,14,17,5,29,0,0,0,3.47,3.25,4.98,4.95,43.27,31.19,29.00,34.34,28.55,1007.43,0.00,0.00,9.56,0.00,0.00,-175.98,"END
"
714,0,0,468044107,-484589729,11320706,2023,8,14,17,5,30,0,0,0,3.46,3.26,4.98,4.95,43.05,31.80,29.01,34.34,28.57,1007.53,-0.04,0.00,9.91,-0.22,0.00,-175.83,"END
"
715,0,0,468055189,-484520763,11321119,2023,8,14,17,5,31,0,0,0,3.48,3.25,4.98,4.96,44.11,32.37,29.00,34.37,28.54,1007.47,-0.15,0.08,9.64,-0.91,0.45,-173.24,"END
"
716,0,0,468066260,-484451795,11321532,2023,8,14,17,5,32,0,0,0,3.46,3.25,4.98,4.96,43.99,32.78,29.01,34.36,28.57,1007.63,-0.04,-0.08,9.71,-0.23,-0.45,-173.18,"END
"
717,0,0,468077320,-484382824,11321944,2023,8,14,17,5,33,0,0,0,3.47,3.25,4.98,4.93,43.99,32.67,29.03,34.38,28.60,1007.53,0.00,0.04,9.71,0.00,0.23,-175.25,"END
"
718,0,0,468088369,-484313851,11322356,2023,8,14,17,5,34,0,0,0,3.47,3.26,4.98,4.96,43.38,32.38,29.01,34.36,28.60,1007.50,0.00,-0.04,9.75,0.00,-0.22,-175.80,"END
"
719,0,0,464367695,-486097295,11183647,2023,8,14,17,5,35,0,0,0,3.47,3.25,4.98,4.96,43.92,33.05,29.02,34.38,28.57,1007.47,0.04,0.00,9.71,0.23,0.00,-175.87,"END
"
720,0,0,464380211,-486029644,11184114,2023,8,14,17,5,36,0,0,0,3.47,3.26,4.98,4.95,43.28,32.71,29.04,34.38,28.59,1007.54,0.00,-0.04,9.71,0.00,-0.23,-173.07,"END
"
721,0,0,468121452,-484106920,11323588,2023,8,14,17,5,37,0,0,0,3.47,3.25,4.98,4.90,43.69,32.01,29.04,34.37,28.58,1007.40,-0.08,0.04,9.75,-0.45,0.22,-175.08,"END
"
722,0,0,468132458,-484037938,11323999,2023,8,14,17,5,38,0,0,0,3.40,3.25,4.98,4.96,44.38,32.13,29.03,34.36,28.62,1007.56,0.00,-0.08,9.71,0.00,-0.45,-172.82,"END
"
723,0,0,468143453,-483968954,11324408,2023,8,14,17,5,39,0,0,0,3.47,3.25,4.98,4.96,43.85,33.01,29.03,34.38,28.59,1007.23,-0.04,0.04,9.79,-0.22,0.22,-174.88,"END
"
724,0,0,468154437,-483899968,11324818,2023,8,14,17,5,40,0,0,0,3.48,3.26,4.98,4.96,44.06,33.40,29.06,34.38,28.60,1007.50,0.00,0.00,9.75,0.00,0.00,-175.92,"END
"
725,0,0,464442630,-485691349,11186442,2023,8,14,17,5,41,0,0,0,3.48,3.25,4.98,4.96,43.55,32.14,29.07,34.43,28.63,1007.61,0.00,-0.08,9.75,0.00,-0.45,-176.93,"END
"
726,0,0,464455082,-485623682,11186906,2023,8,14,17,5,42,0,0,0,3.38,3.25,4.98,4.96,43.76,32.98,29.07,34.40,28.61,1007.48,-0.04,-0.15,9.45,-0.23,-0.93,-177.17,"END
"
727,0,0,460938152,-487298917,11055725,2023,8,14,17,5,43,0,0,0,3.47,3.25,4.98,4.95,43.22,31.66,29.06,34.42,28.64,1007.59,0.00,-0.04,9.75,0.00,-0.22,-176.57,"END
"
728,0,0,460951992,-487232490,11056242,2023,8,14,17,5,44,0,0,0,3.43,3.26,4.98,4.96,43.81,32.77,29.09,34.42,28.63,1007.24,0.00,0.04,9.71,0.00,0.23,-175.88,"END
"
729,0,0,460965823,-487166059,11056757,2023,8,14,17,5,45,0,0,0,3.48,3.25,4.98,4.95,45.12,32.32,29.08,34.42,28.63,1007.69,-0.04,0.00,9.71,-0.23,0.00,-175.73,"END
"
730,0,0,457630793,-488737162,10932317,2023,8,14,17,5,46,0,0,0,3.46,3.27,4.98,4.96,44.36,32.63,29.10,34.41,28.65,1007.39,0.00,0.04,9.91,0.00,0.22,-174.25,"END
"
731,0,0,460993452,-487033188,11057788,2023,8,14,17,5,47,0,0,0,3.47,3.25,4.98,4.95,42.82,31.75,29.08,34.44,28.65,1007.33,-0.04,0.00,9.79,-0.22,0.00,-177.07,"END
"
732,0,0,457661076,-488606630,10933447,2023,8,14,17,5,48,0,0,0,3.42,3.26,4.98,4.95,43.98,32.55,29.10,34.45,28.65,1007.37,-0.04,0.00,9.71,-0.23,0.00,-174.95,"END
"
733,0,0,457676201,-488541359,10934012,2023,8,14,17,5,49,0,0,0,3.47,3.25,4.98,4.96,45.05,32.29,29.09,34.46,28.67,1007.53,0.00,-0.04,9.68,0.00,-0.23,-176.48,"END
"
734,0,0,457691317,-488476084,10934576,2023,8,14,17,5,50,0,0,0,3.46,3.25,4.98,4.93,44.21,31.71,29.10,34.45,28.65,1007.32,-0.04,0.00,9.75,-0.22,0.00,-174.61,"END
"
735,0,0,457706422,-488410806,10935139,2023,8,14,17,5,51,0,0,0,3.47,3.25,4.98,4.96,43.94,32.23,29.12,34.45,28.69,1007.58,0.00,-0.08,9.71,0.00,-0.45,-176.22,"END
"
736,0,0,457721517,-488345524,10935703,2023,8,14,17,5,52,0,0,0,3.46,3.26,4.98,4.95,43.13,32.78,29.13,34.44,28.70,1007.53,0.00,0.00,9.68,0.00,0.00,-175.51,"END
"
737,0,0,454560316,-489826307,10817724,2023,8,14,17,5,53,0,0,0,3.47,3.25,4.98,4.96,43.40,32.89,29.12,34.47,28.70,1007.45,0.00,0.04,9.71,0.00,0.23,-174.66,"END
"
738,0,0,452227701,-490894946,10730662,2023,8,14,17,5,54,0,0,0,3.46,3.25,4.98,4.91,44.15,31.92,29.12,34.45,28.68,1007.49,-0.04,0.04,9.87,-0.22,0.22,-174.98,"END
"
739,0,0,454592994,-489697935,10818944,2023,8,14,17,5,55,0,0,0,3.47,3.25,4.98,4.96,43.74,31.87,29.11,34.49,28.69,1007.46,-0.15,0.00,9.75,-0.90,0.00,-170.59,"END
"
740,0,0,454609317,-489633744,10819553,2023,8,14,17,5,56,0,0,0,3.47,3.26,4.98,4.92,43.49,32.43,29.13,34.47,28.66,1007.56,0.00,0.08,9.68,0.00,0.45,-174.71,"END
"
741,0,0,454625631,-489569549,10820162,2023,8,14,17,5,57,0,0,0,3.47,3.25,4.98,4.96,44.65,32.98,29.15,34.47,28.75,1007.44,-0.04,-0.04,9.71,-0.23,-0.23,-176.65,"END
"
742,0,0,451623453,-490965738,10708109,2023,8,14,17,5,58,0,0,0,3.46,3.26,4.98,4.95,44.42,32.06,29.13,34.48,28.70,1007.29,0.00,0.04,9.75,0.00,0.22,-175.51,"END
"
743,0,0,454658228,-489441148,10821379,2023,8,14,17,5,59,0,0,0,3.45,3.25,4.98,4.96,45.36,32.25,29.17,34.48,28.68,1007.59,-0.04,-0.08,9.91,-0.22,-0.44,-176.13,"END
"
744,0,0,454674511,-489376941,10821986,2023,8,14,17,6,0,0,0,0,3.47,3.25,4.99,4.92,42.65,32.58,29.14,34.48,28.70,1007.58,-0.04,0.04,9.71,-0.23,0.23,-175.33,"END
"
745,0,0,451675925,-490776248,10710068,2023,8,14,17,6,1,0,0,0,3.46,3.25,4.98,4.95,45.37,33.34,29.15,34.51,28.71,1007.54,0.04,0.04,9.56,0.23,0.23,-175.09,"END
"
746,0,0,451693395,-490713076,10710720,2023,8,14,17,6,2,0,0,0,3.45,3.25,4.98,4.96,44.41,33.06,29.18,34.49,28.73,1007.56,0.04,0.04,9.83,0.22,0.22,-175.71,"END
"
747,0,0,451710856,-490649900,10711371,2023,8,14,17,6,3,0,0,0,3.34,3.25,4.98,4.96,43.02,32.90,29.17,34.54,28.70,1007.72,-0.08,0.08,9.68,-0.45,0.45,-174.67,"END
"
748,0,0,451728306,-490586721,10712023,2023,8,14,17,6,4,0,0,0,3.47,3.25,4.98,4.96,44.75,30.94,29.18,34.56,28.71,1007.76,-0.04,-0.04,9.52,-0.23,-0.23,-175.45,"END
"
749,0,0,451745747,-490523537,10712674,2023,8,14,17,6,5,0,0,0,3.47,3.25,4.98,4.95,43.93,32.21,29.17,34.55,28.72,1007.51,0.00,-0.08,9.75,0.00,-0.45,-176.48,"END
"
750,0,0,448894951,-491845229,10606273,2023,8,14,17,6,6,0,0,0,3.47,3.25,4.98,4.95,44.00,32.06,29.17,34.56,28.77,1007.38,-0.04,0.00,9.83,-0.22,0.00,-175.98,"END
"
751,0,0,451780598,-490397157,10713974,2023,8,14,17,6,7,0,0,0,3.38,3.25,4.98,4.96,43.74,32.48,29.18,34.57,28.71,1007.37,0.11,0.11,9.98,0.66,0.66,-175.18,"END
"
752,0,0,451798009,-490333960,10714624,2023,8,14,17,6,8,0,0,0,3.46,3.26,4.98,4.95,43.55,31.85,29.19,34.57,28.75,1007.43,-0.04,0.00,9.71,-0.23,0.00,-175.38,"END
"
753,0,0,448950631,-491658598,10608351,2023,8,14,17,6,9,0,0,0,3.47,3.26,4.98,4.96,44.78,33.09,29.19,34.56,28.76,1007.51,-0.04,0.00,9.68,-0.23,0.00,-175.02,"END
"
754,0,0,448969171,-491596378,10609043,2023,8,14,17,6,10,0,0,0,3.47,3.26,4.98,4.96,43.43,32.04,29.23,34.59,28.77,1007.54,0.00,0.08,9.75,0.00,0.45,-174.37,"END
"
755,0,0,448987702,-491534155,10609735,2023,8,14,17,6,11,0,0,0,3.47,3.25,4.98,4.95,44.60,32.93,29.22,34.57,28.76,1007.55,-0.04,0.04,9.91,-0.22,0.22,-174.77,"END
"
756,0,0,449006223,-491471927,10610426,2023,8,14,17,6,12,0,0,0,3.47,3.26,4.98,4.96,45.00,32.32,29.22,34.55,28.76,1007.43,0.00,-0.04,9.71,0.00,-0.23,-176.42,"END
"
757,0,0,451277808,-490314573,10695208,2023,8,14,17,6,13,0,0,0,3.46,3.25,4.98,4.93,43.17,34.15,29.20,34.61,28.76,1007.51,-0.04,0.00,9.71,-0.23,0.00,-175.40,"END
"
758,0,0,451295403,-490251561,10695865,2023,8,14,17,6,14,0,0,0,3.47,3.26,4.98,4.95,43.81,32.96,29.21,34.61,28.83,1007.29,0.00,0.00,9.75,0.00,0.00,-174.94,"END
"
759,0,0,451312988,-490188546,10696521,2023,8,14,17,6,15,0,0,0,3.48,3.25,4.98,4.95,44.22,31.57,29.22,34.66,28.75,1007.50,0.11,0.08,9.87,0.67,0.44,-174.53,"END
"
760,0,0,448617025,-491447724,10595901,2023,8,14,17,6,16,0,0,0,3.48,3.25,4.98,4.96,44.44,32.27,29.24,34.61,28.76,1007.38,-0.04,0.00,9.75,-0.22,0.00,-175.28,"END
"
761,0,0,448635683,-491385633,10596597,2023,8,14,17,6,17,0,0,0,3.47,3.25,4.98,4.96,43.84,32.87,29.23,34.65,28.82,1007.49,0.00,-0.04,9.71,0.00,-0.23,-175.02,"END
"
762,0,0,448654331,-491323537,10597293,2023,8,14,17,6,18,0,0,0,3.48,3.25,4.98,4.97,43.76,32.94,29.23,34.70,28.80,1007.32,0.00,0.04,9.60,0.00,0.23,-174.63,"END
"
763,0,0,448672970,-491261437,10597989,2023,8,14,17,6,19,0,0,0,3.48,3.25,4.98,4.90,43.97,33.10,29.25,34.66,28.80,1007.47,0.00,0.04,9.56,0.00,0.23,-175.09,"END
"
764,0,0,448691598,-491199333,10598684,2023,8,14,17,6,20,0,0,0,3.41,3.25,4.98,4.96,44.82,31.94,29.27,34.69,28.84,1007.62,0.00,0.00,9.71,0.00,0.00,-175.22,"END
"
765,0,0,448710217,-491137224,10599379,2023,8,14,17,6,21,0,0,0,3.47,3.25,4.98,4.96,43.76,32.56,29.25,34.63,28.80,1007.65,0.00,0.04,9.71,0.00,0.23,-174.43,"END
"
766,0,0,448728826,-491075110,10600073,2023,8,14,17,6,22,0,0,0,3.46,3.25,4.98,4.96,43.68,32.35,29.26,34.69,28.80,1007.40,-0.04,0.00,9.71,-0.23,0.00,-174.48,"END
"
767,0,0,448747425,-491012993,10600767,2023,8,14,17,6,23,0,0,0,3.47,3.25,4.98,4.96,42.96,33.19,29.28,34.64,28.85,1007.67,0.00,-0.04,9.71,0.00,-0.23,-176.62,"END
"
768,0,0,448766015,-490950871,10601461,2023,8,14,17,6,24,0,0,0,3.39,3.26,4.98,4.96,44.37,31.92,29.25,34.72,28.79,1007.31,-0.04,-0.04,9.68,-0.23,-0.23,-172.23,"END
"
769,0,0,448784594,-490888744,10602155,2023,8,14,17,6,25,0,0,0,3.47,3.25,4.98,4.96,45.47,32.40,29.28,34.73,28.83,1007.59,-0.04,-0.04,9.68,-0.23,-0.23,-174.82,"END
"
770,0,0,446218627,-492087606,10506396,2023,8,14,17,6,26,0,0,0,3.42,3.26,4.98,4.96,44.26,33.29,29.30,34.70,28.87,1007.50,-0.08,-0.08,9.79,-0.45,-0.45,-177.46,"END
"
771,0,0,446238231,-492026355,10507128,2023,8,14,17,6,27,0,0,0,3.47,3.25,4.98,4.96,43.56,33.08,29.28,34.72,28.90,1007.48,0.00,0.04,9.60,0.00,0.23,-176.42,"END
"
772,0,0,446257826,-491965099,10507859,2023,8,14,17,6,28,0,0,0,3.45,3.26,4.98,4.96,44.76,31.71,29.29,34.73,28.89,1007.27,-0.15,-0.04,9.68,-0.91,-0.23,-175.01,"END
"
773,0,0,444017150,-493000532,10424255,2023,8,14,17,6,29,0,0,0,3.47,3.25,4.98,4.96,43.59,31.95,29.29,34.75,28.84,1007.62,-0.04,0.00,9.75,-0.22,0.00,-175.46,"END
"
774,0,0,444037638,-492940037,10425019,2023,8,14,17,6,30,0,0,0,3.42,3.26,4.98,4.96,44.18,32.78,29.30,34.72,28.85,1007.38,-0.04,0.00,9.52,-0.23,0.00,-174.88,"END
"
775,0,0,444058116,-492879537,10425783,2023,8,14,17,6,31,0,0,0,3.47,3.25,4.98,4.96,43.64,31.90,29.30,34.77,28.85,1007.63,-0.04,0.00,9.87,-0.22,0.00,-176.73,"END
"
776,0,0,444078585,-492819032,10426547,2023,8,14,17,6,32,0,0,0,3.46,3.26,4.98,4.93,44.95,33.11,29.30,34.71,28.84,1007.36,-0.08,0.11,9.75,-0.45,0.67,-172.90,"END
"
777,0,0,444099044,-492758522,10427310,2023,8,14,17,6,33,0,0,0,3.47,3.25,4.98,4.96,42.88,32.33,29.31,34.78,28.87,1007.39,-0.04,0.00,9.71,-0.23,0.00,-175.75,"END
"
778,0,0,444119493,-492698007,10428073,2023,8,14,17,6,34,0,0,0,3.46,3.27,4.98,4.96,43.95,31.99,29.32,34.77,28.87,1007.63,0.00,0.00,9.71,0.00,0.00,-176.30,"END
"
779,0,0,446394716,-491536180,10512967,2023,8,14,17,6,35,0,0,0,3.46,3.25,4.98,4.95,44.62,33.21,29.32,34.78,28.91,1007.46,0.00,0.00,9.83,0.00,0.00,-176.05,"END
"
780,0,0,446414233,-491474887,10513696,2023,8,14,17,6,36,0,0,0,3.47,3.26,4.98,4.92,43.98,32.21,29.32,34.77,28.87,1007.56,-0.04,0.04,9.68,-0.23,0.23,-174.28,"END
"
781,0,0,446433740,-491413589,10514424,2023,8,14,17,6,37,0,0,0,3.47,3.24,4.98,4.96,44.17,32.71,29.34,34.80,28.91,1007.57,-0.08,0.00,9.75,-0.45,0.00,-173.83,"END
"
782,0,0,446453238,-491352287,10515151,2023,8,14,17,6,38,0,0,0,3.46,3.26,4.98,4.92,43.34,32.48,29.34,34.80,28.94,1007.46,-0.04,0.00,9.68,-0.23,0.00,-173.84,"END
"
783,0,0,446472726,-491290980,10515878,2023,8,14,17,6,39,0,0,0,3.47,3.25,4.98,4.96,43.88,32.41,29.34,34.80,28.95,1007.40,0.11,-0.04,9.79,0.67,-0.22,-176.20,"END
"
784,0,0,446492204,-491229669,10516605,2023,8,14,17,6,40,0,0,0,3.46,3.25,4.98,4.94,44.90,32.62,29.35,34.79,28.91,1007.51,0.00,0.04,9.60,0.00,0.23,-173.99,"END
"
785,0,0,446511673,-491168353,10517332,2023,8,14,17,6,41,0,0,0,3.46,3.25,4.98,4.95,44.56,32.81,29.35,34.78,28.90,1007.64,-0.08,-0.04,9.64,-0.45,-0.23,-176.25,"END
"
786,0,0,446531132,-491107032,10518058,2023,8,14,17,6,42,0,0,0,3.46,3.25,4.98,4.93,45.02,32.75,29.35,34.81,28.95,1007.63,-0.04,0.00,9.71,-0.23,0.00,-174.61,"END
"
787,0,0,446550581,-491045707,10518784,2023,8,14,17,6,43,0,0,0,3.47,3.25,4.98,4.96,43.05,32.25,29.35,34.82,28.90,1007.55,0.04,-0.04,9.71,0.23,-0.23,-175.05,"END
"
788,0,0,446570021,-490984377,10519509,2023,8,14,17,6,44,0,0,0,3.46,3.25,4.98,4.95,43.91,33.03,29.37,34.82,28.90,1007.65,0.00,0.00,10.06,0.00,0.00,-175.29,"END
"
789,0,0,444134515,-492134920,10428634,2023,8,14,17,6,45,0,0,0,3.45,3.25,4.98,4.96,45.58,32.23,29.39,34.82,28.93,1007.49,-0.08,0.08,9.71,-0.45,0.45,-174.77,"END
"
790,0,0,444154935,-492074418,10429395,2023,8,14,17,6,46,0,0,0,3.47,3.26,4.98,4.96,44.17,31.60,29.37,34.82,28.95,1007.43,-0.08,-0.04,9.71,-0.45,-0.23,-175.52,"END
"
791,0,0,444175346,-492013911,10430157,2023,8,14,17,6,47,0,0,0,3.47,3.26,4.98,4.96,43.76,32.93,29.38,34.82,28.93,1007.52,0.00,-0.08,9.75,0.00,-0.45,-176.95,"END
"
792,0,0,444195747,-491953400,10430918,2023,8,14,17,6,48,0,0,0,3.46,3.26,4.98,4.96,43.48,32.27,29.38,34.83,28.94,1007.42,-0.04,0.04,9.79,-0.22,0.22,-174.87,"END
"
793,0,0,444216138,-491892883,10431679,2023,8,14,17,6,49,0,0,0,3.38,3.25,4.98,4.96,45.24,31.21,29.39,34.86,28.92,1007.54,0.04,0.00,9.71,0.23,0.00,-176.02,"END
"
794,0,0,444236520,-491832362,10432439,2023,8,14,17,6,50,0,0,0,3.47,3.25,4.98,4.96,43.66,32.90,29.37,34.85,28.96,1007.33,0.00,0.00,9.75,0.00,0.00,-174.75,"END
"
795,0,0,444256892,-491771836,10433199,2023,8,14,17,6,51,0,0,0,3.47,3.26,4.98,4.96,44.33,33.33,29.40,34.85,28.96,1007.47,-0.04,0.00,9.64,-0.23,0.00,-176.73,"END
"
796,0,0,444277255,-491711305,10433959,2023,8,14,17,6,52,0,0,0,3.45,3.26,4.98,4.96,44.32,32.46,29.41,34.81,28.95,1007.65,0.15,-0.04,9.71,0.90,-0.23,-175.99,"END
"
797,0,0,444297608,-491650769,10434718,2023,8,14,17,6,53,0,0,0,3.48,3.25,4.98,4.95,44.34,31.58,29.42,34.85,28.98,1007.69,0.00,0.00,9.64,0.00,0.00,-175.83,"END
"
