Packet Number,SIV,FixType,Latitude,Longitude,Altitude,Year,Month,Day,Hour,Min,Sec,NNV,NEV,NDV,Battery,3v3 Supply,5v Supply,Radio Supply,Analog Internal,Analog External,Altimeter Temp,Digital Internal,Digital Eternal,Pressure,Accel A,Accel Y,Accel z,Pitch,Roll,Yaw
Packet Number,SIV,FixType,Latitude,Longitude,Altitude,Year,Month,Day,Hour,Min,Sec,NNV,NEV,NDV,Battery,3v3 Supply,5v Supply,Radio Supply,Analog Internal,Analog External,Altimeter Temp,Digital Internal,Digital Eternal,Pressure,Accel A,Accel Y,Accel z,Pitch,Roll,Yaw
Packet Number,SIV,FixType,Latitude,Longitude,Altitude,Year,Month,Day,Hour,Min,Sec,NNV,NEV,NDV,Battery,3v3 Supply,5v Supply,Radio Supply,Analog Internal,Analog External,Altimeter Temp,Digital Internal,Digital Eternal,Pressure,Accel A,Accel Y,Accel z,Pitch,Roll,Yaw
Packet Number,SIV,FixType,Latitude,Longitude,Altitude,Year,Month,Day,Hour,Min,Sec,NNV,NEV,NDV,Battery,3v3 Supply,5v Supply,Radio Supply,Analog Internal,Analog External,Altimeter Temp,Digital Internal,Digital Eternal,Pressure,Accel A,Accel Y,Accel z,Pitch,Roll,Yaw
Packet Number,SIV,FixType,Latitude,Longitude,Altitude,Year,Month,Day,Hour,Min,Sec,NNV,NEV,NDV,Battery,3v3 Supply,5v Supply,Radio Supply,Analog Internal,Analog External,Altimeter Temp,Digital Internal,Digital Eternal,Pressure,Accel A,Accel Y,Accel z,Pitch,Roll,Yaw
Packet Number,SIV,FixType,Latitude,Longitude,Altitude,Year,Month,Day,Hour,Min,Sec,NNV,NEV,NDV,Battery,3v3 Supply,5v Supply,Radio Supply,Analog Internal,Analog External,Altimeter Temp,Digital Internal,Digital Eternal,Pressure,Accel A,Accel Y,Accel z,Pitch,Roll,Yaw
Packet Number,SIV,FixType,Latitude,Longitude,Altitude,Year,Month,Day,Hour,Min,Sec,NNV,NEV,NDV,Battery,3v3 Supply,5v Supply,Radio Supply,Analog Internal,Analog External,Altimeter Temp,Digital Internal,Digital Eternal,Pressure,Accel A,Accel Y,Accel z,Pitch,Roll,Yaw
Packet Number,SIV,FixType,Latitude,Longitude,Altitude,Year,Month,Day,Hour,Min,Sec,NNV,NEV,NDV,Battery,3v3 Supply,5v Supply,Radio Supply,Analog Internal,Analog External,Altimeter Temp,Digital Internal,Digital Eternal,Pressure,Accel A,Accel Y,Accel z,Pitch,Roll,Yaw
Packet Number,SIV,FixType,Latitude,Longitude,Altitude,Year,Month,Day,Hour,Min,Sec,NNV,NEV,NDV,Battery,3v3 Supply,5v Supply,Radio Supply,Analog Internal,Analog External,Altimeter Temp,Digital Internal,Digital Eternal,Pressure,Accel A,Accel Y,Accel z,Pitch,Roll,Yaw
Packet Number,SIV,FixType,Latitude,Longitude,Altitude,Year,Month,Day,Hour,Min,Sec,NNV,NEV,NDV,Battery,3v3 Supply,5v Supply,Radio Supply,Analog Internal,Analog External,Altimeter Temp,Digital Internal,Digital Eternal,Pressure,Accel A,Accel Y,Accel z,Pitch,Roll,Yaw
Packet Number,SIV,FixType,Latitude,Longitude,Altitude,Year,Month,Day,Hour,Min,Sec,NNV,NEV,NDV,Battery,3v3 Supply,5v Supply,Radio Supply,Analog Internal,Analog External,Altimeter Temp,Digital Internal,Digital Eternal,Pressure,Accel A,Accel Y,Accel z,Pitch,Roll,Yaw
Packet Number,SIV,FixType,Latitude,Longitude,Altitude,Year,Month,Day,Hour,Min,Sec,NNV,NEV,NDV,Battery,3v3 Supply,5v Supply,Radio Supply,Analog Internal,Analog External,Altimeter Temp,Digital Internal,Digital Eternal,Pressure,Accel A,Accel Y,Accel z,Pitch,Roll,Yaw
Packet Number,SIV,FixType,Latitude,Longitude,Altitude,Year,Month,Day,Hour,Min,Sec,NNV,NEV,NDV,Battery,3v3 Supply,5v Supply,Radio Supply,Analog Internal,Analog External,Altimeter Temp,Digital Internal,Digital Eternal,Pressure,Accel A,Accel Y,Accel z,Pitch,Roll,Yaw
Packet Number,SIV,FixType,Latitude,Longitude,Altitude,Year,Month,Day,Hour,Min,Sec,NNV,NEV,NDV,Battery,3v3 Supply,5v Supply,Radio Supply,Analog Internal,Analog External,Altimeter Temp,Digital Internal,Digital Eternal,Pressure,Accel A,Accel Y,Accel z,Pitch,Roll,Yaw
Packet Number,SIV,FixType,Latitude,Longitude,Altitude,Year,Month,Day,Hour,Min,Sec,NNV,NEV,NDV,Battery,3v3 Supply,5v Supply,Radio Supply,Analog Internal,Analog External,Altimeter Temp,Digital Internal,Digital Eternal,Pressure,Accel A,Accel Y,Accel z,Pitch,Roll,Yaw
Packet Number,SIV,FixType,Latitude,Longitude,Altitude,Year,Month,Day,Hour,Min,Sec,NNV,NEV,NDV,Battery,3v3 Supply,5v Supply,Radio Supply,Analog Internal,Analog External,Altimeter Temp,Digital Internal,Digital Eternal,Pressure,Accel A,Accel Y,Accel z,Pitch,Roll,Yaw
Packet Number,SIV,FixType,Latitude,Longitude,Altitude,Year,Month,Day,Hour,Min,Sec,NNV,NEV,NDV,Battery,3v3 Supply,5v Supply,Radio Supply,Analog Internal,Analog External,Altimeter Temp,Digital Internal,Digital Eternal,Pressure,Accel A,Accel Y,Accel z,Pitch,Roll,Yaw
Packet Number,SIV,FixType,Latitude,Longitude,Altitude,Year,Month,Day,Hour,Min,Sec,NNV,NEV,NDV,Battery,3v3 Supply,5v Supply,Radio Supply,Analog Internal,Analog External,Altimeter Temp,Digital Internal,Digital Eternal,Pressure,Accel A,Accel Y,Accel z,Pitch,Roll,Yaw
a62,0,0,0,0,0,2020,8,2,0,1,4,0,0,0,3.44,3.26,4.98,4.97,31.29,26.27,23.15,24.84,23.27,1011.92,0.04,-0.04,9.71,0.23,-0.23,-158.64,"END
"
Packet Number,SIV,FixType,Latitude,Longitude,Altitude,Year,Month,Day,Hour,Min,Sec,NNV,NEV,NDV,Battery,3v3 Supply,5v Supply,Radio Supply,Analog Internal,Analog External,Altimeter Temp,Digital Internal,Digital Eternal,Pressure,Accel A,Accel Y,Accel z,Pitch,Roll,Yaw
254,0,0,0,0,0,2020,8,2,0,4,16,0,0,0,3.39,3.28,4.98,4.96,32.92,23.98,20.29,24.58,19.94,1021.58,0.65,0.04,9.75,3.81,0.22,171.85,"END
"
255,0,0,0,0,0,2020,8,2,0,4,17,0,0,0,3.41,3.26,4.98,4.91,32.11,23.86,20.32,24.58,19.96,1021.57,0.65,0.00,9.68,3.84,0.00,171.81,"END
"
256,0,0,0,0,0,2020,8,2,0,4,18,0,0,0,3.40,3.27,4.99,4.96,33.56,23.03,20.32,24.63,19.91,1021.29,0.61,0.04,9.71,3.60,0.23,174.02,"END
"
257,0,0,0,0,0,2020,8,2,0,4,19,0,0,0,3.40,3.26,4.98,4.89,33.15,24.50,20.33,24.64,19.97,1021.28,0.65,0.00,9.68,3.84,0.00,172.69,"END
"
258,0,0,0,0,0,2020,8,2,0,4,20,0,0,0,3.39,3.27,4.98,4.97,33.21,23.93,20.35,24.62,19.94,1021.46,0.61,0.00,9.60,3.65,0.00,172.62,"END
"
259,0,0,0,0,0,2020,8,2,0,4,21,0,0,0,3.41,3.26,4.98,4.96,32.84,24.01,20.35,24.63,19.96,1021.53,0.69,0.00,9.87,3.99,0.00,172.14,"END
"
260,0,0,0,0,0,2020,8,2,0,4,22,0,0,0,3.40,3.27,4.98,4.96,33.37,23.44,20.36,24.66,19.94,1021.57,0.73,0.04,9.60,4.33,0.23,172.09,"END
"
261,0,0,0,0,0,2020,8,2,0,4,23,0,0,0,3.40,3.26,4.98,4.96,34.28,23.91,20.36,24.73,19.93,1021.61,0.61,0.00,9.71,3.60,0.00,172.20,"END
"
262,0,0,0,0,0,2020,8,2,0,4,24,0,0,0,3.27,3.27,4.98,4.96,34.24,23.17,20.38,24.73,19.96,1021.31,0.61,0.00,9.68,3.62,0.00,172.54,"END
"
263,0,0,0,0,0,2020,8,2,0,4,25,0,0,0,3.40,3.26,4.98,4.95,32.83,24.15,20.39,24.77,20.02,1021.63,0.65,0.00,9.68,3.84,0.00,172.42,"END
"
264,0,0,0,0,0,2020,8,2,0,4,26,0,0,0,3.29,3.27,4.98,4.97,32.85,23.03,20.40,24.71,20.01,1021.41,0.65,0.00,9.71,3.83,0.00,172.47,"END
"
265,0,0,0,0,0,2020,8,2,0,4,27,0,0,0,3.40,3.26,4.98,4.96,33.19,24.26,20.40,24.74,19.96,1021.53,0.65,-0.04,9.71,3.83,-0.23,171.13,"END
"
266,0,0,0,0,0,2020,8,2,0,4,28,0,0,0,3.41,3.20,4.98,4.96,33.52,24.25,20.42,24.73,19.98,1021.54,0.57,0.00,9.56,3.43,0.00,171.39,"END
"
267,0,0,0,0,0,2020,8,2,0,4,29,0,0,0,3.41,3.27,4.98,4.96,34.24,24.01,20.39,24.75,20.01,1021.52,0.69,0.00,9.75,4.04,0.00,171.57,"END
"
268,0,0,0,0,0,2020,8,2,0,4,30,0,0,0,3.35,3.19,4.98,4.96,34.12,23.47,20.41,24.78,20.00,1021.63,0.61,-0.04,9.83,3.56,-0.22,171.37,"END
"
269,0,0,0,0,0,2020,8,2,0,4,31,0,0,0,3.40,3.26,4.98,4.96,34.16,24.13,20.39,24.82,19.96,1021.47,0.69,0.00,9.64,4.09,0.00,171.91,"END
"
270,0,0,0,0,0,2020,8,2,0,4,32,0,0,0,3.39,3.27,4.98,4.96,33.30,23.33,20.44,24.83,20.03,1021.32,0.65,-0.04,9.75,3.81,-0.22,171.67,"END
"
271,0,0,0,0,0,2020,8,2,0,4,33,0,0,0,3.40,3.26,4.98,4.96,33.50,23.90,20.47,24.85,20.02,1021.49,0.65,-0.04,9.79,3.80,-0.22,172.27,"END
"
272,0,0,0,0,0,2020,8,2,0,4,34,0,0,0,3.40,3.24,4.98,4.96,33.33,23.87,20.47,24.85,20.05,1021.52,0.69,-0.04,9.94,3.96,-0.22,172.02,"END
"
273,0,0,0,0,0,2020,8,2,0,4,35,0,0,0,3.41,3.26,4.98,4.96,33.95,24.11,20.48,24.83,20.05,1021.48,0.84,0.04,9.71,4.95,0.22,172.19,"END
"
274,0,0,0,0,0,2020,8,2,0,4,36,0,0,0,3.39,3.27,4.98,4.90,33.89,23.93,20.47,24.84,20.11,1021.52,0.65,-0.04,9.68,3.84,-0.23,171.40,"END
"
275,0,0,0,0,0,2020,8,2,0,4,37,0,0,0,3.40,3.26,4.98,4.96,33.61,24.71,20.48,24.88,20.07,1021.39,0.61,-0.04,9.75,3.59,-0.22,171.72,"END
"
276,0,0,0,0,0,2020,8,2,0,4,38,0,0,0,3.38,3.27,4.98,4.90,33.81,23.46,20.49,24.94,20.07,1021.42,0.65,-0.04,9.68,3.84,-0.23,171.27,"END
"
277,0,0,0,0,0,2020,8,2,0,4,39,0,0,0,3.40,3.26,4.98,4.96,33.49,24.57,20.51,24.95,20.12,1021.57,0.57,-0.04,9.79,3.35,-0.22,171.81,"END
"
278,0,0,0,0,0,2020,8,2,0,4,40,0,0,0,3.39,3.27,4.98,4.95,33.64,24.14,20.50,24.93,20.09,1021.48,0.61,-0.04,9.71,3.60,-0.23,171.17,"END
"
279,0,0,0,0,0,2020,8,2,0,4,41,0,0,0,3.41,3.26,4.98,4.95,33.06,24.53,20.52,24.90,20.10,1021.53,0.65,0.00,9.71,3.83,0.00,172.17,"END
"
280,0,0,0,0,0,2020,8,2,0,4,42,0,0,0,3.39,3.27,4.98,4.94,33.93,23.69,20.54,24.91,20.14,1021.56,0.65,-0.04,9.75,3.81,-0.22,171.69,"END
"
281,0,0,0,0,0,2020,8,2,0,4,43,0,0,0,3.30,3.26,4.98,4.96,33.11,24.02,20.54,24.97,20.07,1021.44,0.65,0.00,9.71,3.83,0.00,172.90,"END
"
282,0,0,0,0,0,2020,8,2,0,4,44,0,0,0,3.39,3.27,4.98,4.96,34.01,23.15,20.54,25.02,20.12,1021.56,0.73,0.00,9.68,4.29,0.00,172.10,"END
"
283,0,0,0,0,0,2020,8,2,0,4,45,0,0,0,3.40,3.26,4.98,4.96,34.66,24.64,20.57,25.01,20.15,1021.36,0.65,-0.04,9.71,3.83,-0.23,171.68,"END
"
284,0,0,0,0,0,2020,8,2,0,4,46,0,0,0,3.39,3.27,4.99,4.96,33.08,22.95,20.58,24.99,20.13,1021.33,0.65,0.00,9.71,3.83,0.00,172.26,"END
"
285,0,0,0,0,0,2020,8,2,0,4,47,0,0,0,3.27,3.26,4.98,4.96,34.18,24.26,20.58,25.05,20.17,1021.54,0.61,0.00,9.71,3.60,0.00,171.25,"END
"
286,0,0,0,0,0,2020,8,2,0,4,48,0,0,0,3.40,3.27,4.98,4.96,33.90,23.95,20.57,25.07,20.19,1021.39,0.73,0.00,9.56,4.35,0.00,172.26,"END
"
287,0,0,0,0,0,2020,8,2,0,4,49,0,0,0,3.22,3.24,4.98,4.96,33.89,24.88,20.60,25.04,20.16,1021.54,0.50,-0.11,9.56,2.98,-0.69,170.39,"END
"
Packet Number,SIV,FixType,Latitude,Longitude,Altitude,Year,Month,Day,Hour,Min,Sec,NNV,NEV,NDV,Battery,3v3 Supply,5v Supply,Radio Supply,Analog Internal,Analog External,Altimeter Temp,Digital Internal,Digital Eternal,Pressure,Accel A,Accel Y,Accel z,Pitch,Roll,Yaw
301,0,0,0,0,0,2020,8,2,0,5,3,0,0,0,3.40,3.26,4.98,4.96,34.42,24.31,20.71,25.23,20.30,1021.47,0.65,0.11,9.68,3.84,0.68,172.56,"END
"
302,0,0,0,0,0,2020,8,2,0,5,4,0,0,0,3.39,3.27,4.98,4.96,34.74,23.52,20.72,25.26,20.25,1021.43,0.61,0.00,9.68,3.62,0.00,172.35,"END
"
303,0,0,0,0,0,2020,8,2,0,5,5,0,0,0,3.41,3.26,4.98,4.95,34.16,24.81,20.72,25.26,20.31,1021.39,0.73,0.00,9.71,4.28,0.00,171.50,"END
"
304,0,0,0,0,0,2020,8,2,0,5,6,0,0,0,3.26,3.27,4.98,4.96,33.97,23.91,20.76,25.28,20.30,1021.55,0.65,-0.08,9.75,3.81,-0.45,173.87,"END
"
305,0,0,0,0,0,2020,8,2,0,5,7,0,0,0,3.40,3.26,4.98,4.96,34.04,24.85,20.74,25.37,20.30,1021.36,0.61,0.04,9.64,3.63,0.23,171.84,"END
"
306,0,0,0,0,0,2020,8,2,0,5,8,0,0,0,3.33,3.27,4.98,4.96,34.65,24.31,20.75,25.34,20.31,1021.42,0.61,0.00,9.68,3.62,0.00,171.96,"END
"
307,0,0,0,0,0,2020,8,2,0,5,9,0,0,0,3.40,3.26,4.98,4.96,33.76,24.15,20.76,25.29,20.30,1021.33,0.65,-0.04,9.68,3.84,-0.23,171.51,"END
"
308,0,0,0,0,0,2020,8,2,0,5,10,0,0,0,3.37,3.22,4.98,4.96,33.65,23.64,20.79,25.35,20.34,1021.64,0.69,0.00,9.48,4.15,0.00,171.89,"END
"
309,0,0,0,0,0,2020,8,2,0,5,11,0,0,0,3.40,3.26,4.98,4.96,34.26,24.15,20.77,25.33,20.32,1021.42,0.84,0.04,9.52,5.05,0.23,172.65,"END
"
310,0,0,0,0,0,2020,8,2,0,5,12,0,0,0,3.32,3.19,4.98,4.96,34.73,24.59,20.79,25.37,20.34,1021.39,0.61,-0.08,9.71,3.60,-0.45,171.48,"END
"
311,0,0,0,0,0,2020,8,2,0,5,13,0,0,0,3.39,3.26,4.98,4.96,33.96,24.57,20.77,25.37,20.30,1021.49,0.61,-0.04,9.68,3.62,-0.23,171.41,"END
"
312,0,0,0,0,0,2020,8,2,0,5,14,0,0,0,3.39,3.27,4.98,4.96,34.76,23.28,20.82,25.39,20.34,1021.45,0.65,-0.08,9.71,3.83,-0.45,171.99,"END
"
313,0,0,0,0,0,2020,8,2,0,5,15,0,0,0,3.40,3.26,4.98,4.96,34.73,24.22,20.81,25.44,20.35,1021.17,0.61,-0.04,9.71,3.60,-0.23,171.57,"END
"
314,0,0,0,0,0,2020,8,2,0,5,16,0,0,0,3.39,3.23,4.99,4.97,34.28,24.50,20.81,25.44,20.34,1021.57,0.69,0.00,9.64,4.09,0.00,171.75,"END
"
315,0,0,0,0,0,2020,8,2,0,5,17,0,0,0,3.41,3.26,4.98,4.96,34.42,24.49,20.84,25.42,20.37,1021.14,0.65,0.00,9.83,3.78,0.00,171.68,"END
"
316,0,0,0,0,0,2020,8,2,0,5,18,0,0,0,3.39,3.27,4.98,4.90,34.54,23.94,20.84,25.46,20.40,1021.49,0.69,-0.08,9.91,3.98,-0.44,171.32,"END
"
317,0,0,0,0,0,2020,8,2,0,5,19,0,0,0,3.40,3.26,4.98,4.96,34.20,24.66,20.85,25.51,20.37,1021.49,0.65,0.00,9.68,3.84,0.00,172.17,"END
"
318,0,0,0,0,0,2020,8,2,0,5,20,0,0,0,3.40,3.27,4.98,4.93,34.57,23.99,20.85,25.50,20.42,1021.45,0.65,0.04,9.71,3.83,0.23,172.67,"END
"
319,0,0,0,0,0,2020,8,2,0,5,21,0,0,0,3.41,3.27,4.98,4.95,34.53,24.64,20.85,25.50,20.45,1021.63,0.69,0.00,9.64,4.09,0.00,172.44,"END
"
320,0,0,0,0,0,2020,8,2,0,5,22,0,0,0,3.40,3.27,4.99,4.94,33.80,24.36,20.87,25.50,20.45,1021.37,0.69,0.04,9.71,4.05,0.23,172.58,"END
"
321,0,0,0,0,0,2020,8,2,0,5,23,0,0,0,3.40,3.26,4.98,4.96,33.93,24.61,20.88,25.56,20.37,1021.51,0.65,0.00,9.71,3.83,0.00,174.33,"END
"
322,0,0,0,0,0,2020,8,2,0,5,24,0,0,0,3.39,3.27,4.98,4.92,32.66,24.66,20.88,25.51,20.44,1021.44,0.57,-0.04,9.83,3.34,-0.22,172.08,"END
"
323,0,0,0,0,0,2020,8,2,0,5,25,0,0,0,3.32,3.26,4.98,4.96,35.17,24.67,20.89,25.49,20.48,1021.61,0.61,0.00,9.79,3.58,0.00,174.20,"END
"
324,0,0,0,0,0,2020,8,2,0,5,26,0,0,0,3.39,3.27,4.99,4.96,35.09,21.84,20.92,25.50,20.48,1021.71,0.65,0.04,9.79,3.80,0.22,171.87,"END
"
325,0,0,0,0,0,2020,8,2,0,5,27,0,0,0,3.40,3.26,4.98,4.96,34.12,24.54,20.92,25.54,20.45,1021.38,0.65,0.04,9.71,3.83,0.23,171.40,"END
"
326,0,0,0,0,0,2020,8,2,0,5,28,0,0,0,3.40,3.27,4.98,4.96,33.99,23.75,20.90,25.55,20.42,1021.22,0.65,-0.08,9.75,3.81,-0.45,171.52,"END
"
327,0,0,0,0,0,2020,8,2,0,5,29,0,0,0,3.34,3.23,4.98,4.96,34.93,24.09,20.92,25.59,20.42,1021.35,0.61,-0.04,9.68,3.62,-0.23,171.45,"END
"
328,0,0,0,0,0,2020,8,2,0,5,30,0,0,0,3.38,3.27,4.98,4.96,34.45,24.15,20.89,25.65,20.45,1021.49,0.65,-0.04,9.71,3.83,-0.23,172.21,"END
"
329,0,0,0,0,0,2020,8,2,0,5,31,0,0,0,3.23,3.24,4.98,4.96,34.52,24.94,20.96,25.60,20.45,1021.62,0.69,-0.08,9.71,4.05,-0.45,171.13,"END
"
330,0,0,0,0,0,2020,8,2,0,5,32,0,0,0,3.39,3.27,4.99,4.96,34.48,23.86,20.94,25.66,20.52,1021.31,0.65,0.08,9.45,3.94,0.46,172.91,"END
"
331,0,0,0,0,0,2020,8,2,0,5,33,0,0,0,3.40,3.21,4.98,4.96,34.25,25.06,20.96,25.61,20.52,1021.44,0.61,0.08,9.75,3.59,0.45,172.83,"END
"
332,0,0,0,0,0,2020,8,2,0,5,34,0,0,0,3.40,3.27,4.99,4.97,34.83,24.60,20.95,25.64,20.49,1021.42,0.69,0.00,9.71,4.05,0.00,172.05,"END
"
333,0,0,0,0,0,2020,8,2,0,5,35,0,0,0,3.39,3.18,4.98,4.96,35.19,24.90,20.97,25.67,20.49,1021.47,0.65,0.00,9.68,3.84,0.00,171.85,"END
"
334,0,0,0,0,0,2020,8,2,0,5,36,0,0,0,3.40,3.27,4.98,4.96,34.91,23.67,20.96,25.65,20.52,1021.36,0.61,0.00,9.68,3.62,0.00,172.44,"END
"
335,0,0,0,0,0,2020,8,2,0,5,37,0,0,0,3.40,3.26,4.98,4.93,34.91,24.81,20.99,25.66,20.55,1021.50,0.96,0.50,9.71,5.61,2.92,174.84,"END
"
336,0,0,0,0,0,2020,8,2,0,5,38,0,0,0,3.39,3.27,4.99,4.96,34.59,23.97,21.00,25.67,20.52,1021.83,0.57,0.04,9.64,3.41,0.23,173.07,"END
"
337,0,0,0,0,0,2020,8,2,0,5,39,0,0,0,3.40,3.27,4.98,4.96,34.89,25.34,21.00,25.72,20.50,1021.43,0.73,0.08,9.79,4.24,0.45,172.52,"END
"
338,0,0,0,0,0,2020,8,2,0,5,40,0,0,0,3.40,3.27,4.99,4.96,34.72,25.14,21.02,25.73,20.57,1021.24,0.69,-0.08,9.68,4.07,-0.45,171.91,"END
"
339,0,0,0,0,0,2020,8,2,0,5,41,0,0,0,3.40,3.26,4.98,4.97,34.52,24.43,21.03,25.70,20.53,1021.58,0.61,0.00,9.68,3.62,0.00,171.93,"END
"
340,0,0,0,0,0,2020,8,2,0,5,42,0,0,0,3.40,3.27,4.98,4.96,35.05,24.64,21.05,25.73,20.55,1021.44,0.69,-0.04,9.71,4.05,-0.23,172.31,"END
"
341,0,0,0,0,0,2020,8,2,0,5,43,0,0,0,3.40,3.26,4.98,4.89,34.53,24.70,21.05,25.73,20.62,1021.48,0.65,0.04,9.71,3.83,0.23,172.18,"END
"
342,0,0,0,0,0,2020,8,2,0,5,44,0,0,0,3.39,3.27,4.98,4.97,35.06,24.43,21.05,25.74,20.58,1021.52,0.65,0.00,9.56,3.89,0.00,172.00,"END
"
343,0,0,0,0,0,2020,8,2,0,5,45,0,0,0,3.41,3.26,4.98,4.96,35.42,25.16,21.05,25.80,20.60,1021.45,0.65,-0.08,9.98,3.73,-0.44,171.25,"END
"
344,0,0,0,0,0,2020,8,2,0,5,46,0,0,0,3.38,3.28,4.98,4.97,34.92,24.79,21.06,25.72,20.61,1021.40,0.61,0.00,9.75,3.59,0.00,171.99,"END
"
345,0,0,0,0,0,2020,8,2,0,5,47,0,0,0,3.40,3.26,4.98,4.96,34.71,24.72,21.07,25.78,20.57,1021.52,0.65,-0.04,9.68,3.84,-0.23,171.53,"END
"
346,0,0,0,0,0,2020,8,2,0,5,48,0,0,0,3.24,3.27,4.98,4.96,34.74,24.07,21.09,25.80,20.57,1021.76,0.61,0.00,9.79,3.58,0.00,173.76,"END
"
347,0,0,0,0,0,2020,8,2,0,5,49,0,0,0,3.40,3.26,4.98,4.96,33.70,25.27,21.11,25.80,20.62,1021.58,0.65,0.08,9.71,3.83,0.45,172.68,"END
"
348,0,0,0,0,0,2020,8,2,0,5,50,0,0,0,3.32,3.27,4.98,4.96,33.81,23.80,21.10,25.80,20.65,1021.45,0.61,0.04,9.71,3.60,0.23,171.67,"END
"
349,0,0,0,0,0,2020,8,2,0,5,51,0,0,0,3.39,3.26,4.98,4.96,35.13,25.17,21.10,25.85,20.63,1021.34,0.65,0.00,9.87,3.77,0.00,171.91,"END
"
350,0,0,0,0,0,2020,8,2,0,5,52,0,0,0,3.32,3.24,4.99,4.97,34.97,24.26,21.13,25.85,20.59,1021.50,0.61,-0.04,9.68,3.62,-0.23,171.73,"END
"
351,0,0,0,0,0,2020,8,2,0,5,53,0,0,0,3.39,3.26,4.98,4.96,35.69,25.08,21.10,25.85,20.62,1021.59,0.69,-0.04,9.71,4.05,-0.23,171.68,"END
"
352,0,0,0,0,0,2020,8,2,0,5,54,0,0,0,3.29,3.20,4.98,4.96,34.83,24.89,21.14,25.87,20.68,1021.47,0.57,0.04,9.75,3.37,0.22,172.04,"END
"
353,0,0,0,0,0,2020,8,2,0,5,55,0,0,0,3.39,3.26,4.98,4.96,34.54,25.03,21.11,25.87,20.63,1021.21,0.57,-0.04,9.79,3.35,-0.22,170.94,"END
"
354,0,0,0,0,0,2020,8,2,0,5,56,0,0,0,3.38,3.23,4.98,4.96,35.34,24.45,21.15,25.88,20.68,1021.53,0.65,0.04,9.64,3.86,0.23,171.94,"END
"
355,0,0,0,0,0,2020,8,2,0,5,57,0,0,0,3.39,3.26,4.98,4.96,34.95,24.56,21.16,25.94,20.66,1021.08,0.69,0.00,9.56,4.12,0.00,172.49,"END
"
356,0,0,0,0,0,2020,8,2,0,5,58,0,0,0,3.39,3.21,4.98,4.96,34.23,23.92,21.14,25.97,20.73,1021.21,0.65,-0.04,9.71,3.83,-0.23,172.05,"END
"
357,0,0,0,0,0,2020,8,2,0,5,59,0,0,0,3.40,3.26,4.98,4.96,35.15,24.85,21.20,25.94,20.71,1021.66,0.61,-0.04,9.75,3.59,-0.22,171.39,"END
"
358,0,0,0,0,0,2020,8,2,0,6,0,0,0,0,3.40,3.27,4.98,4.90,34.23,24.68,21.16,26.03,20.66,1021.27,0.61,0.00,9.71,3.60,0.00,171.52,"END
"
359,0,0,0,0,0,2020,8,2,0,6,1,0,0,0,3.40,3.26,4.98,4.96,35.29,24.88,21.17,25.95,20.70,1020.95,0.65,0.00,9.68,3.84,0.00,171.70,"END
"
360,0,0,0,0,0,2020,8,2,0,6,2,0,0,0,3.38,3.27,4.98,4.95,35.54,23.94,21.22,25.95,20.69,1021.58,0.65,-0.04,9.64,3.86,-0.23,172.21,"END
"
361,0,0,0,0,0,2020,8,2,0,6,3,0,0,0,3.40,3.26,4.98,4.95,35.64,24.82,21.21,25.95,20.72,1021.66,0.65,0.00,9.41,3.95,0.00,171.50,"END
"
362,0,0,0,0,0,2020,8,2,0,6,4,0,0,0,3.40,3.27,4.98,4.93,34.59,24.43,21.22,26.01,20.77,1021.44,0.61,-0.04,9.94,3.52,-0.22,171.70,"END
"
363,0,0,0,0,0,2020,8,2,0,6,5,0,0,0,3.39,3.26,4.98,4.96,35.57,25.37,21.23,25.98,20.73,1021.50,0.61,-0.08,9.71,3.60,-0.45,171.16,"END
"
364,0,0,0,0,0,2020,8,2,0,6,6,0,0,0,3.39,3.27,4.98,4.92,35.08,24.21,21.24,26.00,20.76,1021.41,0.61,0.00,9.68,3.62,0.00,171.43,"END
"
365,0,0,0,0,0,2020,8,2,0,6,7,0,0,0,3.33,3.26,4.98,4.96,35.00,24.90,21.23,26.08,20.79,1021.67,0.65,-0.04,9.71,3.83,-0.23,173.97,"END
"
366,0,0,0,0,0,2020,8,2,0,6,8,0,0,0,3.39,3.27,4.98,4.96,35.38,23.89,21.25,26.05,20.79,1021.54,0.61,0.04,9.64,3.63,0.23,171.80,"END
"
367,0,0,0,0,0,2020,8,2,0,6,9,0,0,0,3.39,3.26,4.98,4.95,35.34,24.97,21.24,26.08,20.76,1021.52,0.69,0.00,9.94,3.96,0.00,172.56,"END
"
368,0,0,0,0,0,2020,8,2,0,6,10,0,0,0,3.38,3.27,4.98,4.96,35.57,24.96,21.24,26.10,20.73,1021.47,0.46,0.04,9.56,2.75,0.23,171.39,"END
"
369,0,0,0,0,0,2020,8,2,0,6,11,0,0,0,3.33,3.23,4.98,4.96,35.14,24.84,21.27,26.10,20.73,1021.44,0.65,-0.08,9.71,3.83,-0.45,171.38,"END
"
370,0,0,0,0,0,2020,8,2,0,6,12,0,0,0,3.40,3.27,4.98,4.95,34.50,24.34,21.26,26.06,20.79,1021.61,0.69,-0.04,9.75,4.04,-0.22,171.56,"END
"
371,0,0,0,0,0,2020,8,2,0,6,13,0,0,0,3.22,3.25,4.98,4.96,35.52,25.32,21.30,26.13,20.78,1021.53,0.69,0.04,9.75,4.04,0.22,172.42,"END
"
372,0,0,0,0,0,2020,8,2,0,6,14,0,0,0,3.37,3.27,4.98,4.96,35.61,23.23,21.28,26.09,20.78,1021.56,0.69,0.00,9.71,4.05,0.00,171.56,"END
"
373,0,0,0,0,0,2020,8,2,0,6,15,0,0,0,3.40,3.20,4.98,4.96,35.37,25.55,21.28,26.13,20.80,1021.44,0.69,0.00,9.68,4.07,0.00,171.53,"END
"
374,0,0,0,0,0,2020,8,2,0,6,16,0,0,0,3.38,3.27,4.98,4.96,35.36,24.13,21.31,26.19,20.81,1021.47,0.65,0.00,9.60,3.87,0.00,172.43,"END
"
375,0,0,0,0,0,2020,8,2,0,6,17,0,0,0,3.40,3.17,4.98,4.96,36.03,25.27,21.31,26.17,20.85,1021.51,0.65,0.00,9.68,3.84,0.00,171.85,"END
"
376,0,0,0,0,0,2020,8,2,0,6,18,0,0,0,3.39,3.27,4.99,4.96,35.36,25.06,21.28,26.25,20.79,1021.25,0.69,0.04,9.75,4.04,0.22,172.27,"END
"
377,0,0,0,0,0,2020,8,2,0,6,19,0,0,0,3.40,3.26,4.98,4.93,35.42,24.97,21.34,26.19,20.82,1021.30,0.69,0.04,9.64,4.09,0.23,172.35,"END
"
378,0,0,0,0,0,2020,8,2,0,6,20,0,0,0,3.38,3.27,4.98,4.96,35.43,25.24,21.34,26.16,20.83,1021.45,0.57,0.00,9.75,3.37,0.00,172.04,"END
"
379,0,0,0,0,0,2020,8,2,0,6,21,0,0,0,3.40,3.26,4.98,4.96,35.41,25.31,21.34,26.20,20.84,1021.58,0.65,-0.04,9.83,3.78,-0.22,172.28,"END
"
380,0,0,0,0,0,2020,8,2,0,6,22,0,0,0,3.39,3.27,4.99,4.97,35.07,24.31,21.32,26.17,20.88,1021.36,0.73,-0.04,10.02,4.15,-0.22,171.85,"END
"
381,0,0,0,0,0,2020,8,2,0,6,23,0,0,0,3.40,3.26,4.98,4.92,35.30,24.93,21.37,26.26,20.86,1021.44,0.65,0.00,9.75,3.81,0.00,171.84,"END
"
382,0,0,0,0,0,2020,8,2,0,6,24,0,0,0,3.40,3.28,4.98,4.96,35.57,24.61,21.36,26.20,20.94,1021.54,0.69,0.00,9.71,4.05,0.00,173.62,"END
"
383,0,0,0,0,0,2020,8,2,0,6,25,0,0,0,3.40,3.26,4.98,4.87,35.66,25.60,21.39,26.26,20.87,1021.50,0.65,0.00,9.71,3.83,0.00,172.23,"END
"
384,0,0,0,0,0,2020,8,2,0,6,26,0,0,0,3.39,3.27,4.98,4.96,35.76,25.04,21.36,26.22,20.84,1021.50,0.65,0.00,9.68,3.84,0.00,171.53,"END
"
385,0,0,0,0,0,2020,8,2,0,6,27,0,0,0,3.40,3.26,4.98,4.96,35.50,25.04,21.39,26.26,20.88,1021.29,0.61,-0.15,10.02,3.49,-0.87,171.38,"END
"
386,0,0,0,0,0,2020,8,2,0,6,28,0,0,0,3.39,3.27,4.99,4.96,36.03,24.17,21.39,26.33,20.90,1021.25,0.65,0.00,9.56,3.89,0.00,171.52,"END
"
387,0,0,0,0,0,2020,8,2,0,6,29,0,0,0,3.40,3.26,4.98,4.96,35.59,24.67,21.41,26.30,20.88,1021.62,0.65,-0.04,9.71,3.83,-0.23,171.37,"END
"
388,0,0,0,0,0,2020,8,2,0,6,30,0,0,0,3.25,3.27,4.98,4.96,36.01,24.59,21.39,26.36,20.89,1021.56,0.65,0.08,9.68,3.84,0.45,174.12,"END
"
389,0,0,0,0,0,2020,8,2,0,6,31,0,0,0,3.41,3.26,4.98,4.96,35.64,24.49,21.41,26.31,20.95,1021.50,0.61,0.00,9.68,3.62,0.00,171.93,"END
"
390,0,0,0,0,0,2020,8,2,0,6,32,0,0,0,3.34,3.27,4.98,4.96,34.94,24.69,21.44,26.34,20.93,1021.67,0.65,0.00,9.64,3.86,0.00,172.14,"END
"
391,0,0,0,0,0,2020,8,2,0,6,33,0,0,0,3.40,3.27,4.98,4.96,36.06,25.02,21.44,26.34,20.96,1021.25,0.69,0.04,9.71,4.05,0.23,172.24,"END
"
392,0,0,0,0,0,2020,8,2,0,6,34,0,0,0,3.32,3.23,4.98,4.96,34.87,24.29,21.46,26.31,20.94,1021.26,0.57,-0.08,9.64,3.41,-0.45,171.60,"END
"
393,0,0,0,0,0,2020,8,2,0,6,35,0,0,0,3.39,3.26,4.98,4.96,36.37,25.27,21.44,26.34,20.91,1021.53,0.61,0.00,9.75,3.59,0.00,172.49,"END
"
394,0,0,0,0,0,2020,8,2,0,6,36,0,0,0,3.27,3.23,4.98,4.96,35.09,25.08,21.45,26.38,20.99,1021.39,0.61,0.00,9.68,3.62,0.00,172.58,"END
"
395,0,0,0,0,0,2020,8,2,0,6,37,0,0,0,3.40,3.26,4.98,4.96,36.39,25.42,21.44,26.37,21.01,1021.44,0.65,0.04,9.68,3.84,0.23,172.15,"END
"
396,0,0,0,0,0,2020,8,2,0,6,38,0,0,0,3.39,3.23,4.98,4.96,35.23,24.52,21.50,26.39,21.01,1021.60,0.61,0.00,9.71,3.60,0.00,171.95,"END
"
397,0,0,0,0,0,2020,8,2,0,6,39,0,0,0,3.40,3.26,4.98,4.96,35.60,25.66,21.51,26.41,21.02,1021.62,0.65,-0.04,9.79,3.80,-0.22,172.04,"END
"
398,0,0,0,0,0,2020,8,2,0,6,40,0,0,0,3.38,3.21,4.98,4.96,35.63,24.68,21.49,26.42,20.98,1021.25,0.73,0.04,9.56,4.35,0.23,172.28,"END
"
399,0,0,0,0,0,2020,8,2,0,6,41,0,0,0,3.40,3.26,4.98,4.96,34.75,25.28,21.51,26.39,21.05,1021.34,0.61,-0.04,9.68,3.62,-0.23,171.88,"END
"
400,0,0,0,0,0,2020,8,2,0,6,42,0,0,0,3.40,3.27,4.98,4.90,35.56,24.20,21.51,26.44,21.00,1021.86,0.65,0.00,9.71,3.83,0.00,172.22,"END
"
401,0,0,0,0,0,2020,8,2,0,6,43,0,0,0,3.40,3.26,4.98,4.96,35.49,25.26,21.54,26.45,20.99,1021.57,0.61,0.04,9.71,3.60,0.23,171.91,"END
"
402,0,0,0,0,0,2020,8,2,0,6,44,0,0,0,3.39,3.27,4.98,4.95,35.48,24.70,21.52,26.47,20.98,1021.67,0.65,0.00,9.75,3.81,0.00,171.79,"END
"
403,0,0,0,0,0,2020,8,2,0,6,45,0,0,0,3.40,3.26,4.98,4.96,35.47,25.88,21.53,26.42,21.01,1021.58,0.65,0.00,9.91,3.76,0.00,171.67,"END
"
404,0,0,0,0,0,2020,8,2,0,6,46,0,0,0,3.39,3.27,4.98,4.93,36.54,25.42,21.53,26.49,21.00,1021.45,0.65,0.00,9.56,3.89,0.00,172.08,"END
"
405,0,0,0,0,0,2020,8,2,0,6,47,0,0,0,3.40,3.26,4.98,4.96,35.99,24.91,21.54,26.45,21.10,1021.34,0.65,-0.04,9.71,3.83,-0.23,171.10,"END
"
406,0,0,0,0,0,2020,8,2,0,6,48,0,0,0,3.39,3.28,4.98,4.91,35.77,24.35,21.57,26.48,21.02,1021.54,0.61,-0.04,9.68,3.62,-0.23,171.76,"END
"
407,0,0,0,0,0,2020,8,2,0,6,49,0,0,0,3.40,3.26,4.98,4.96,35.89,25.11,21.57,26.47,21.01,1021.51,0.61,-0.04,9.79,3.58,-0.22,171.94,"END
"
408,0,0,0,0,0,2020,8,2,0,6,50,0,0,0,3.39,3.27,4.98,4.96,36.35,24.59,21.55,26.53,21.05,1021.57,0.57,0.00,9.71,3.38,0.00,171.90,"END
"
409,0,0,0,0,0,2020,8,2,0,6,51,0,0,0,3.40,3.26,4.98,4.97,36.19,25.32,21.60,26.52,21.06,1021.52,0.65,0.00,9.52,3.91,0.00,172.24,"END
"
410,0,0,0,0,0,2020,8,2,0,6,52,0,0,0,3.38,3.27,4.98,4.95,34.52,24.63,21.59,26.53,21.05,1021.34,0.69,0.00,9.87,3.99,0.00,171.54,"END
"
411,0,0,0,0,0,2020,8,2,0,6,53,0,0,0,3.31,3.24,4.98,4.95,36.56,25.96,21.59,26.55,21.09,1021.55,0.65,-0.04,9.68,3.84,-0.23,172.10,"END
"
412,0,0,0,0,0,2020,8,2,0,6,54,0,0,0,3.39,3.27,4.99,4.97,35.85,24.15,21.61,26.55,21.07,1021.82,0.65,-0.04,9.68,3.84,-0.23,171.59,"END
"
413,0,0,0,0,0,2020,8,2,0,6,55,0,0,0,3.27,3.26,4.98,4.96,36.20,24.80,21.62,26.59,21.09,1021.29,0.61,-0.04,9.68,3.62,-0.23,171.62,"END
"
414,0,0,0,0,0,2020,8,2,0,6,56,0,0,0,3.39,3.27,4.98,4.96,34.94,25.33,21.61,26.59,21.09,1021.39,0.76,-0.04,9.68,4.52,-0.23,171.35,"END
"
415,0,0,0,0,0,2020,8,2,0,6,57,0,0,0,3.40,3.20,4.98,4.96,36.41,25.47,21.61,26.55,21.06,1021.65,0.65,-0.08,9.71,3.83,-0.45,170.89,"END
"
416,0,0,0,0,0,2020,8,2,0,6,58,0,0,0,3.39,3.27,4.98,4.96,36.00,24.67,21.62,26.53,21.10,1021.61,0.65,-0.08,9.75,3.81,-0.45,171.75,"END
"
417,0,0,0,0,0,2020,8,2,0,6,59,0,0,0,3.39,3.16,4.98,4.96,36.15,25.05,21.66,26.60,21.17,1021.71,0.65,0.00,9.75,3.81,0.00,171.74,"END
"
418,0,0,0,0,0,2020,8,2,0,7,0,0,0,0,3.39,3.27,4.98,4.96,35.87,25.37,21.61,26.55,21.06,1021.71,0.61,-0.04,9.71,3.60,-0.23,172.22,"END
"
419,0,0,0,0,0,2020,8,2,0,7,1,0,0,0,3.39,3.26,4.98,4.95,35.80,25.54,21.66,26.63,21.17,1021.87,0.69,-0.04,9.68,4.07,-0.23,171.72,"END
"
420,0,0,0,0,0,2020,8,2,0,7,2,0,0,0,3.40,3.27,4.98,4.96,35.74,24.85,21.66,26.61,21.15,1021.43,0.61,0.04,9.64,3.63,0.23,172.30,"END
"
421,0,0,0,0,0,2020,8,2,0,7,3,0,0,0,3.39,3.26,4.98,4.96,36.13,24.85,21.66,26.63,21.11,1021.74,0.65,0.00,9.64,3.86,0.00,171.14,"END
"
422,0,0,0,0,0,2020,8,2,0,7,4,0,0,0,3.39,3.27,4.98,4.96,35.64,24.48,21.69,26.62,21.12,1021.51,0.46,-0.04,9.52,2.76,-0.23,171.78,"END
"
423,0,0,0,0,0,2020,8,2,0,7,5,0,0,0,3.41,3.26,4.98,4.91,36.06,25.50,21.67,26.66,21.17,1021.48,0.65,0.00,9.71,3.83,0.00,172.77,"END
"
424,0,0,0,0,0,2020,8,2,0,7,6,0,0,0,3.39,3.27,4.98,4.96,35.73,25.14,21.69,26.69,21.20,1021.58,0.57,-0.11,9.71,3.38,-0.68,171.55,"END
"
425,0,0,0,0,0,2020,8,2,0,7,7,0,0,0,3.40,3.26,4.98,4.88,35.13,25.43,21.70,26.67,21.20,1021.46,0.65,-0.08,9.71,3.83,-0.45,171.14,"END
"
426,0,0,0,0,0,2020,8,2,0,7,8,0,0,0,3.37,3.27,4.99,4.96,35.96,24.84,21.70,26.73,21.18,1021.28,0.69,0.04,9.75,4.04,0.22,172.42,"END
"
427,0,0,0,0,0,2020,8,7,19,27,45,0,0,0,3.40,3.26,4.98,4.96,35.69,25.77,21.72,26.71,21.22,1021.55,0.61,-0.04,9.87,3.55,-0.22,171.64,"END
"
428,0,0,0,0,0,2020,8,7,19,27,46,0,0,0,3.38,3.27,4.99,4.96,35.96,26.24,21.70,26.71,21.22,1021.60,0.61,0.00,9.60,3.65,0.00,172.08,"END
"
429,0,0,0,0,0,2020,8,7,19,27,47,0,0,0,3.38,3.21,4.98,4.95,36.03,25.86,21.72,26.74,21.16,1021.41,0.61,0.04,9.71,3.60,0.23,172.39,"END
"
430,0,0,0,0,0,2020,8,7,19,27,48,0,0,0,3.38,3.27,4.98,4.96,36.00,24.84,21.74,26.74,21.16,1021.50,0.65,0.00,9.91,3.76,0.00,171.98,"END
"
431,0,0,0,0,0,2020,8,7,19,27,49,0,0,0,3.40,3.26,4.98,4.96,36.83,25.25,21.76,26.73,21.21,1021.50,0.65,0.00,9.75,3.81,0.00,171.33,"END
"
432,0,0,0,0,0,2020,8,7,19,27,50,0,0,0,3.39,3.27,4.98,4.96,36.80,25.40,21.75,26.73,21.20,1021.41,0.57,0.00,9.71,3.38,0.00,171.92,"END
"
433,0,0,0,0,0,2020,8,7,19,27,51,0,0,0,3.40,3.26,4.98,4.89,35.86,24.29,21.75,26.68,21.21,1021.36,0.69,-0.04,9.71,4.05,-0.23,172.50,"END
"
434,0,0,0,0,0,2020,8,7,19,27,52,0,0,0,3.39,3.27,4.98,4.96,36.34,25.18,21.78,26.77,21.25,1021.39,0.61,0.00,9.64,3.63,0.00,172.66,"END
"
435,0,0,0,0,0,2020,8,7,19,27,53,0,0,0,3.39,3.26,4.98,4.91,36.20,25.50,21.78,26.84,21.21,1021.45,0.61,-0.04,9.71,3.60,-0.23,172.36,"END
"
436,0,0,0,0,0,2020,8,7,19,27,54,0,0,0,3.39,3.27,4.98,4.97,35.27,24.40,21.78,26.81,21.26,1021.44,0.65,0.00,9.75,3.81,0.00,173.79,"END
"
437,0,0,0,0,0,2020,8,7,19,27,55,0,0,0,3.39,3.26,4.98,4.91,36.91,25.55,21.77,26.80,21.22,1021.43,0.61,0.00,9.79,3.58,0.00,171.44,"END
"
438,0,0,0,0,0,2020,8,7,19,27,56,0,0,0,3.40,3.27,4.99,4.96,36.52,25.23,21.80,26.78,21.20,1021.24,0.61,0.00,10.02,3.49,0.00,172.43,"END
"
439,0,0,0,0,0,2020,8,7,19,27,57,0,0,0,3.40,3.26,4.98,4.96,36.84,24.93,21.81,26.80,21.31,1021.81,0.61,-0.04,9.68,3.62,-0.23,172.11,"END
"
440,0,0,0,0,0,2020,8,7,19,27,58,0,0,0,3.26,3.27,4.98,4.96,35.86,25.13,21.78,26.91,21.30,1021.49,0.57,0.00,9.79,3.35,0.00,171.97,"END
"
441,0,0,0,0,0,2020,8,7,19,27,59,0,0,0,3.40,3.26,4.98,4.95,36.73,25.97,21.82,26.85,21.25,1021.42,0.57,-0.04,9.79,3.35,-0.22,171.82,"END
"
442,0,0,0,0,0,2020,8,7,19,28,0,0,0,0,3.39,3.20,4.98,4.96,35.68,25.11,21.81,26.87,21.29,1021.41,0.65,0.00,9.52,3.91,0.00,172.69,"END
"
443,0,0,0,0,0,2020,8,7,19,28,1,0,0,0,3.39,3.26,4.98,4.96,36.59,25.34,21.81,26.87,21.27,1021.35,0.57,0.00,9.75,3.37,0.00,172.44,"END
"
444,0,0,0,0,0,2020,8,7,19,28,2,0,0,0,3.23,3.27,4.98,4.97,35.91,25.17,21.82,26.87,21.28,1021.42,0.69,0.04,9.68,4.07,0.23,171.53,"END
"
445,0,0,0,0,0,2023,9,29,19,28,3,0,0,0,3.39,3.26,4.98,4.96,36.66,25.97,21.82,26.88,21.33,1021.41,0.57,0.00,9.71,3.38,0.00,171.68,"END
"
446,0,0,0,0,0,2023,9,29,19,28,4,0,0,0,3.39,3.24,4.99,4.96,35.78,24.75,21.85,26.91,21.31,1021.70,0.69,0.04,9.71,4.05,0.23,172.56,"END
"
447,0,0,0,0,0,2023,9,29,19,28,5,0,0,0,3.39,3.26,4.98,4.95,36.38,25.38,21.82,26.92,21.33,1021.35,0.57,0.04,9.64,3.41,0.23,171.95,"END
"
448,0,0,0,0,0,2023,9,29,19,28,6,0,0,0,3.39,3.25,4.98,4.97,35.95,25.21,21.84,26.93,21.34,1021.75,0.65,0.00,9.87,3.77,0.00,171.97,"END
"
449,0,0,0,0,0,2023,9,29,19,28,7,0,0,0,3.39,3.26,4.98,4.96,35.52,25.62,21.85,26.90,21.37,1021.50,0.61,0.08,9.71,3.60,0.45,172.23,"END
"
450,0,0,0,0,0,2023,9,29,19,28,8,0,0,0,3.40,3.27,4.98,4.97,35.96,24.98,21.86,26.96,21.34,1021.27,0.61,-0.04,9.52,3.68,-0.23,171.39,"END
"
451,0,0,0,0,0,2023,9,29,19,28,9,0,0,0,3.39,3.26,4.98,4.96,37.25,25.41,21.87,26.95,21.33,1021.47,0.61,-0.04,9.71,3.60,-0.23,171.75,"END
"
452,0,0,0,0,0,2023,9,29,19,28,10,0,0,0,3.39,3.27,4.98,4.95,36.87,25.59,21.90,26.91,21.36,1021.36,0.73,-0.04,9.68,4.29,-0.23,172.04,"END
"
453,0,0,0,0,0,2023,9,29,19,28,11,0,0,0,3.39,3.26,4.98,4.96,36.43,26.02,21.88,26.91,21.37,1021.26,0.65,-0.04,9.60,3.87,-0.23,171.81,"END
"
454,0,0,0,0,0,2023,9,29,19,28,12,0,0,0,3.39,3.27,4.98,4.95,36.49,25.16,21.90,27.02,21.43,1021.64,0.65,-0.04,9.87,3.77,-0.22,172.42,"END
"
455,0,0,0,0,0,2023,9,29,19,28,13,0,0,0,3.40,3.26,4.98,4.96,36.09,25.69,21.89,26.99,21.40,1021.34,0.61,0.00,9.71,3.60,0.00,171.43,"END
"
456,0,0,0,0,0,2023,9,29,19,28,14,0,0,0,3.38,3.27,4.98,4.93,36.69,25.18,21.91,27.02,21.35,1021.58,0.65,0.04,9.56,3.89,0.23,173.03,"END
"
457,0,0,0,0,0,2023,9,29,19,28,15,0,0,0,3.31,3.26,4.98,4.96,37.05,25.50,21.92,27.01,21.34,1021.27,0.61,-0.04,9.64,3.63,-0.23,173.68,"END
"
458,0,0,0,0,0,2023,9,29,19,28,16,0,0,0,3.39,3.27,4.98,4.95,35.92,24.62,21.93,27.02,21.37,1021.41,0.61,0.00,9.71,3.60,0.00,171.87,"END
"
459,0,0,0,0,0,2023,9,29,19,28,17,0,0,0,3.40,3.27,4.98,4.96,36.97,26.40,21.94,27.01,21.41,1021.51,0.65,0.00,9.71,3.83,0.00,173.24,"END
"
460,0,0,0,0,0,2023,9,29,19,28,18,0,0,0,3.39,3.26,4.98,4.96,35.92,24.85,21.95,27.00,21.43,1021.59,0.65,0.00,9.91,3.76,0.00,172.57,"END
"
461,0,0,0,0,0,2023,9,29,19,28,19,0,0,0,3.37,3.26,4.98,4.96,36.67,25.89,21.95,27.06,21.43,1021.71,0.61,-0.04,9.68,3.62,-0.23,172.17,"END
"
462,0,0,0,0,0,2023,9,29,19,28,20,0,0,0,3.39,3.27,4.98,4.97,36.60,25.34,21.97,27.05,21.47,1021.32,0.73,-0.04,9.83,4.23,-0.22,171.44,"END
"
463,0,0,0,0,0,2023,9,29,19,28,21,0,0,0,3.23,3.24,4.98,4.96,37.13,26.37,21.97,27.01,21.36,1021.69,0.54,-0.04,9.75,3.14,-0.22,171.97,"END
"
464,0,0,0,0,0,2023,9,29,19,28,22,0,0,0,3.39,3.27,4.98,4.96,36.50,23.77,21.97,27.05,21.46,1021.65,0.61,0.00,9.71,3.60,0.00,171.94,"END
"
465,0,0,0,0,0,2023,9,29,19,28,23,0,0,0,3.26,3.26,4.98,4.96,36.73,25.55,21.99,27.05,21.45,1021.55,0.61,-0.04,9.68,3.62,-0.23,172.71,"END
"
466,0,0,0,0,0,2023,9,29,19,28,24,0,0,0,3.39,3.27,4.98,4.96,37.35,26.20,21.97,27.08,21.52,1021.38,0.61,0.11,9.79,3.58,0.67,172.85,"END
"
467,0,0,0,0,0,2023,9,29,19,28,25,0,0,0,3.24,3.24,4.98,4.96,36.07,25.52,21.98,27.09,21.41,1021.57,0.65,0.00,9.64,3.86,0.00,171.99,"END
"
468,0,0,0,0,0,2023,9,29,19,28,26,0,0,0,3.39,3.27,4.98,4.96,36.64,25.66,22.00,27.14,21.44,1021.65,0.61,0.00,9.68,3.62,0.00,172.51,"END
"
469,0,0,0,0,0,2023,9,29,19,28,27,0,0,0,3.40,3.26,4.98,4.93,37.33,25.22,22.00,27.08,21.47,1021.50,0.57,0.04,9.71,3.38,0.23,171.97,"END
"
470,0,0,0,0,0,2023,9,29,19,28,28,0,0,0,3.39,3.27,4.99,4.97,35.83,25.45,22.06,27.13,21.49,1021.45,0.65,0.00,9.75,3.81,0.00,171.56,"END
"
471,0,0,0,0,0,2023,9,29,19,28,29,0,0,0,3.39,3.25,4.98,4.96,35.99,26.28,22.01,27.08,21.51,1021.26,0.61,0.00,9.64,3.63,0.00,172.09,"END
"
472,0,0,0,0,0,2023,9,29,19,28,30,0,0,0,3.37,3.27,4.98,4.96,36.79,25.02,22.03,27.14,21.51,1021.43,0.73,-0.04,9.68,4.29,-0.23,171.26,"END
"
473,0,0,0,0,0,2023,9,29,19,28,31,0,0,0,3.39,3.26,4.98,4.93,35.97,25.38,22.03,27.15,21.44,1021.50,0.65,0.00,9.68,3.84,0.00,172.73,"END
"
474,0,0,0,0,0,2023,9,29,19,28,32,0,0,0,3.38,3.27,4.98,4.96,36.80,24.98,22.06,27.13,21.48,1021.68,0.50,0.00,9.64,2.95,0.00,171.80,"END
"
475,0,0,0,0,0,2023,9,29,19,28,33,0,0,0,3.40,3.27,4.98,4.89,35.76,25.80,22.06,27.20,21.52,1021.46,0.65,0.00,9.45,3.94,0.00,172.01,"END
"
476,0,0,0,0,0,2023,9,29,19,28,34,0,0,0,3.38,3.27,4.99,4.96,36.73,24.85,22.05,27.18,21.49,1021.33,0.65,-0.04,9.68,3.84,-0.23,171.92,"END
"
477,0,0,0,0,0,2023,9,29,19,28,35,0,0,0,3.39,3.26,4.98,4.90,36.37,26.36,22.06,27.16,21.50,1021.60,0.61,-0.08,9.64,3.63,-0.45,171.39,"END
"
478,0,0,0,0,0,2023,9,29,19,28,36,0,0,0,3.38,3.27,4.98,4.96,36.45,25.18,22.06,27.22,21.50,1021.58,0.65,0.00,9.68,3.84,0.00,171.92,"END
"
479,0,0,0,0,0,2023,9,29,19,28,37,0,0,0,3.40,3.26,4.98,4.92,38.71,25.59,22.07,27.16,21.53,1021.63,0.65,0.04,9.71,3.83,0.23,171.54,"END
"
480,0,0,0,0,0,2023,9,29,19,28,38,0,0,0,3.38,3.27,4.98,4.96,36.21,25.79,22.08,27.14,21.58,1021.56,0.61,0.00,9.75,3.59,0.00,172.32,"END
"
481,0,0,0,0,0,2023,9,29,19,28,39,0,0,0,3.40,3.26,4.98,4.96,35.48,25.93,22.09,27.20,21.54,1021.44,0.65,0.00,9.75,3.81,0.00,172.14,"END
"
482,0,0,0,0,0,2023,9,29,19,28,40,0,0,0,3.37,3.27,4.98,4.96,36.21,25.55,22.11,27.16,21.58,1021.31,0.65,-0.04,9.94,3.74,-0.22,173.87,"END
"
483,0,0,0,0,0,2023,9,29,19,28,41,0,0,0,3.40,3.26,4.98,4.94,36.44,25.69,22.09,27.21,21.58,1021.54,0.69,-0.04,9.71,4.05,-0.23,172.24,"END
"
484,0,0,0,0,0,2023,9,29,19,28,42,0,0,0,3.35,3.21,4.98,4.96,37.50,25.07,22.10,27.23,21.59,1021.82,0.61,0.08,9.64,3.63,0.45,172.36,"END
"
485,0,0,0,0,0,2023,9,29,19,28,43,0,0,0,3.40,3.26,4.98,4.96,37.49,24.89,22.09,27.23,21.55,1021.46,0.65,-0.08,9.64,3.86,-0.45,171.78,"END
"
486,0,0,0,0,0,2023,9,29,19,28,44,0,0,0,3.31,3.27,4.98,4.97,37.15,25.94,22.13,27.30,21.55,1021.49,0.65,0.00,9.64,3.86,0.00,171.16,"END
"
487,0,0,0,0,0,2023,9,29,19,28,45,0,0,0,3.40,3.26,4.98,4.96,36.98,25.68,22.15,27.21,21.59,1021.57,0.65,0.00,9.75,3.81,0.00,171.69,"END
"
488,0,0,0,0,0,2023,9,29,19,28,46,0,0,0,3.28,3.25,4.98,4.96,37.00,25.71,22.17,27.29,21.61,1021.45,0.61,0.00,9.75,3.59,0.00,172.55,"END
"
489,0,0,0,0,0,2023,9,29,19,28,47,0,0,0,3.39,3.26,4.98,4.96,36.13,25.81,22.12,27.25,21.58,1021.33,0.69,0.04,9.68,4.07,0.23,172.91,"END
"
490,0,0,0,0,0,2023,9,29,19,28,48,0,0,0,3.38,3.23,4.98,4.96,35.81,24.61,22.15,27.27,21.63,1021.29,0.54,-0.04,9.68,3.17,-0.23,171.69,"END
"
491,0,0,0,0,0,2023,9,29,19,28,49,0,0,0,3.40,3.26,4.98,4.96,37.46,26.01,22.16,27.29,21.58,1021.36,0.69,-0.04,9.68,4.07,-0.23,171.90,"END
"
492,0,0,0,0,0,2023,9,29,19,28,50,0,0,0,3.38,3.25,4.98,4.96,36.42,25.12,22.15,27.34,21.66,1021.53,0.65,0.00,9.75,3.81,0.00,172.09,"END
"
493,0,0,0,0,0,2023,9,29,19,28,51,0,0,0,3.38,3.26,4.98,4.96,37.21,26.56,22.17,27.33,21.68,1021.49,0.61,0.00,9.71,3.60,0.00,171.20,"END
"
494,0,0,0,0,0,2023,9,29,19,28,52,0,0,0,3.39,3.18,4.98,4.96,37.07,25.43,22.17,27.35,21.70,1021.32,0.57,0.00,9.75,3.37,0.00,172.00,"END
"
495,0,0,0,0,0,2023,9,29,19,28,53,0,0,0,3.39,3.27,4.98,4.96,35.04,26.64,22.17,27.33,21.61,1021.10,0.65,0.00,9.71,3.83,0.00,172.06,"END
"
496,0,0,0,0,0,2023,9,29,19,28,54,0,0,0,3.39,3.27,4.98,4.94,36.68,25.42,22.18,27.38,21.66,1021.46,0.61,0.04,9.68,3.62,0.23,171.50,"END
"
497,0,0,0,0,0,2023,9,29,19,28,55,0,0,0,3.40,3.26,4.98,4.96,36.89,25.85,22.19,27.33,21.62,1021.63,0.61,0.00,9.71,3.60,0.00,171.80,"END
"
498,0,0,0,0,0,2023,9,29,19,28,56,0,0,0,3.39,3.27,4.98,4.93,37.10,24.97,22.21,27.41,21.65,1021.67,0.61,0.00,9.71,3.60,0.00,171.52,"END
"
499,0,0,0,0,0,2023,9,29,19,28,57,0,0,0,3.30,3.26,4.98,4.96,36.34,26.47,22.21,27.33,21.70,1021.64,0.50,0.00,9.79,2.91,0.00,174.83,"END
"
500,0,0,0,0,0,2023,9,29,19,28,58,0,0,0,3.38,3.27,4.98,4.96,36.79,25.60,22.24,27.39,21.67,1021.42,0.61,0.00,9.87,3.55,0.00,172.49,"END
"
501,0,0,0,0,0,2023,9,29,19,28,59,0,0,0,3.39,3.26,4.98,4.96,36.46,26.36,22.24,27.37,21.69,1021.66,0.57,-0.04,9.68,3.39,-0.23,171.38,"END
"
502,0,0,0,0,0,2023,9,29,19,29,0,0,0,0,3.39,3.27,4.98,4.96,36.73,25.96,22.22,27.41,21.67,1021.74,0.69,-0.04,9.68,4.07,-0.23,172.12,"END
"
503,0,0,0,0,0,2023,9,29,19,29,1,0,0,0,3.29,3.26,4.98,4.96,37.48,25.92,22.24,27.37,21.71,1021.09,0.61,-0.08,10.02,3.49,-0.44,171.40,"END
"
504,0,0,0,0,0,2023,9,29,19,29,2,0,0,0,3.39,3.28,4.98,4.96,37.22,25.69,22.23,27.42,21.76,1020.88,0.69,0.00,9.79,4.02,0.00,172.03,"END
"
505,0,0,0,0,0,2023,9,29,19,29,3,0,0,0,3.22,3.25,4.98,4.96,37.43,26.22,22.25,27.41,21.62,1021.67,0.61,0.00,9.68,3.62,0.00,171.73,"END
"
506,0,0,0,0,0,2023,9,29,19,29,4,0,0,0,3.39,3.27,4.99,4.97,37.48,24.74,22.25,27.43,21.77,1021.40,0.61,-0.04,9.75,3.59,-0.22,172.16,"END
"
507,0,0,0,0,0,2023,9,29,19,29,5,0,0,0,3.25,3.26,4.98,4.96,36.71,25.16,22.27,27.44,21.75,1021.38,0.61,-0.04,9.68,3.62,-0.23,172.05,"END
"
508,0,0,0,0,0,2023,9,29,19,29,6,0,0,0,3.38,3.27,4.98,4.96,37.10,25.33,22.23,27.39,21.74,1021.20,0.61,-0.04,9.75,3.59,-0.22,171.54,"END
"
509,0,0,0,0,0,2023,9,29,19,29,7,0,0,0,3.23,3.26,4.98,4.96,37.51,26.16,22.29,27.43,21.75,1021.59,0.65,0.00,9.71,3.83,0.00,171.94,"END
"
510,0,0,0,0,0,2023,9,29,19,29,8,0,0,0,3.38,3.27,4.98,4.96,36.34,25.76,22.28,27.41,21.73,1021.53,0.69,0.04,9.68,4.07,0.23,172.37,"END
"
511,0,0,0,0,0,2023,9,29,19,29,9,0,0,0,3.40,3.26,4.98,4.93,37.86,26.50,22.28,27.45,21.73,1021.44,0.61,0.04,9.79,3.58,0.22,171.98,"END
"
512,0,0,0,0,0,2023,9,29,19,29,10,0,0,0,3.38,3.27,4.99,4.96,36.90,25.65,22.26,27.46,21.77,1021.41,0.65,-0.08,9.98,3.73,-0.44,171.18,"END
"
513,0,0,0,0,0,2023,9,29,19,29,11,0,0,0,3.36,3.21,4.98,4.96,38.22,25.36,22.30,27.52,21.75,1021.24,0.61,0.04,9.60,3.65,0.23,172.36,"END
"
514,0,0,0,0,0,2023,9,29,19,29,12,0,0,0,3.39,3.27,4.98,4.96,35.83,25.52,22.31,27.48,21.77,1021.19,0.57,-0.04,9.68,3.39,-0.23,172.19,"END
"
515,0,0,0,0,0,2023,9,29,19,29,13,0,0,0,3.39,3.26,4.98,4.96,38.07,25.57,22.31,27.47,21.78,1021.24,0.61,0.00,9.71,3.60,0.00,171.90,"END
"
516,0,0,0,0,0,2023,9,29,19,29,14,0,0,0,3.38,3.27,4.98,4.97,37.27,25.76,22.34,27.54,21.77,1021.57,0.61,0.08,9.79,3.58,0.45,172.69,"END
"
517,0,0,0,0,0,2023,9,29,19,29,15,0,0,0,3.40,3.26,4.98,4.88,36.41,26.00,22.34,27.51,21.78,1021.57,0.54,0.00,9.56,3.21,0.00,171.74,"END
"
518,0,0,0,0,0,2023,9,29,19,29,16,0,0,0,3.39,3.27,4.98,4.97,37.64,25.62,22.34,27.51,21.78,1021.26,0.57,-0.04,9.75,3.37,-0.22,171.51,"END
"
519,0,0,0,0,0,2023,9,29,19,29,17,0,0,0,3.39,3.26,4.98,4.90,36.64,26.05,22.35,27.51,21.80,1021.61,0.54,0.00,9.87,3.11,0.00,171.17,"END
"
520,0,0,0,0,0,2023,9,29,19,29,18,0,0,0,3.38,3.27,4.98,4.96,36.75,25.48,22.34,27.53,21.82,1021.50,0.57,0.00,9.71,3.38,0.00,172.00,"END
"
521,0,0,0,0,0,2023,9,29,19,29,19,0,0,0,3.39,3.26,4.98,4.92,37.14,26.74,22.35,27.52,21.82,1021.50,0.54,0.00,9.68,3.17,0.00,171.35,"END
"
522,0,0,0,0,0,2023,9,29,19,29,20,0,0,0,3.38,3.27,4.98,4.96,37.33,25.57,22.37,27.53,21.82,1021.38,0.61,-0.04,9.75,3.59,-0.22,172.03,"END
"
523,0,0,0,0,0,2023,9,29,19,29,21,0,0,0,3.39,3.26,4.98,4.96,37.81,26.65,22.36,27.55,21.81,1021.24,0.61,-0.15,9.91,3.53,-0.88,171.46,"END
"
524,0,0,0,0,0,2023,9,29,19,29,22,0,0,0,3.38,3.27,4.98,4.96,36.77,25.41,22.37,27.52,21.84,1021.61,0.69,0.04,9.79,4.02,0.22,172.38,"END
"
525,0,0,0,0,0,2023,9,29,19,29,23,0,0,0,3.40,3.26,4.98,4.93,36.73,26.94,22.36,27.55,21.83,1021.60,0.54,0.04,9.71,3.15,0.23,172.81,"END
"
526,0,0,0,0,0,2023,9,29,19,29,24,0,0,0,3.38,3.19,4.98,4.96,36.73,25.81,22.40,27.55,21.84,1021.36,0.57,0.00,9.71,3.38,0.00,171.88,"END
"
527,0,0,0,0,0,2023,9,29,19,29,25,0,0,0,3.39,3.26,4.98,4.96,36.27,25.96,22.41,27.55,21.82,1021.54,0.57,0.00,9.79,3.35,0.00,171.59,"END
"
528,0,0,0,0,0,2023,9,29,19,29,26,0,0,0,3.31,3.27,4.98,4.96,37.19,25.90,22.41,27.61,21.87,1021.26,0.69,-0.04,9.75,4.04,-0.22,171.84,"END
"
529,0,0,0,0,0,2023,9,29,19,29,27,0,0,0,3.38,3.26,4.98,4.96,36.97,26.19,22.41,27.62,21.87,1021.49,0.46,0.00,10.06,2.61,0.00,172.16,"END
"
530,0,0,0,0,0,2023,9,29,19,29,28,0,0,0,3.26,3.25,4.98,4.96,36.97,25.67,22.41,27.58,21.84,1021.49,0.61,0.00,9.87,3.55,0.00,172.64,"END
"
531,0,0,0,0,0,2023,9,29,19,29,29,0,0,0,3.39,3.26,4.98,4.96,37.11,26.53,22.43,27.62,21.91,1021.39,0.61,0.00,9.68,3.62,0.00,172.21,"END
"
532,0,0,0,0,0,2023,9,29,19,29,30,0,0,0,3.38,3.22,4.98,4.97,36.95,25.78,22.43,27.63,21.86,1021.52,0.57,0.00,9.71,3.38,0.00,171.63,"END
"
533,0,0,0,0,0,2023,9,29,19,29,31,0,0,0,3.39,3.27,4.98,4.96,38.20,25.79,22.44,27.62,21.94,1021.45,0.65,0.00,9.71,3.83,0.00,172.22,"END
"
534,0,0,0,0,0,2023,9,29,19,29,32,0,0,0,3.38,3.25,4.99,4.96,37.83,26.57,22.46,27.59,21.88,1021.53,0.57,-0.04,9.68,3.39,-0.23,171.59,"END
"
535,0,0,0,0,0,2023,9,29,19,29,33,0,0,0,3.39,3.26,4.98,4.96,36.08,26.00,22.44,27.66,21.95,1021.22,0.54,-0.04,9.60,3.19,-0.23,172.24,"END
"
536,0,0,0,0,0,2023,9,29,19,29,34,0,0,0,3.38,3.23,4.98,4.96,36.94,25.35,22.46,27.64,21.94,1021.41,0.61,0.00,9.71,3.60,0.00,172.32,"END
"
537,0,0,0,0,0,2023,9,29,19,29,35,0,0,0,3.40,3.26,4.98,4.96,37.15,26.20,22.45,27.65,21.94,1021.64,0.57,0.00,9.71,3.38,0.00,172.39,"END
"
538,0,0,0,0,0,2023,9,29,19,29,36,0,0,0,3.38,3.27,4.99,4.93,37.42,25.49,22.47,27.70,21.98,1021.67,0.61,0.00,9.71,3.60,0.00,172.24,"END
"
539,0,0,0,0,0,2023,9,29,19,29,37,0,0,0,3.39,3.26,4.98,4.96,38.47,26.07,22.45,27.66,21.91,1021.38,0.65,0.00,9.71,3.83,0.00,171.48,"END
"
540,0,0,0,0,0,2023,9,29,19,29,38,0,0,0,3.39,3.27,4.98,4.94,37.85,25.45,22.50,27.70,21.98,1021.47,0.61,0.04,9.75,3.59,0.22,172.44,"END
"
541,0,0,0,0,0,2023,9,29,19,29,39,0,0,0,3.39,3.26,4.98,4.96,37.45,25.83,22.49,27.69,21.99,1021.50,0.46,0.00,9.48,2.77,0.00,173.20,"END
"
542,0,0,0,0,0,2023,9,29,19,29,40,0,0,0,3.38,3.27,4.98,4.96,37.72,25.43,22.48,27.73,21.95,1021.21,0.65,0.00,9.68,3.84,0.00,172.18,"END
"
543,0,0,0,0,0,2023,9,29,19,29,41,0,0,0,3.39,3.27,4.98,4.96,37.46,26.11,22.50,27.73,21.98,1021.27,0.57,0.00,9.83,3.34,0.00,172.48,"END
"
544,0,0,0,0,0,2023,9,29,19,29,42,0,0,0,3.38,3.27,4.98,4.96,36.10,25.76,22.51,27.76,21.94,1021.33,0.57,-0.04,9.71,3.38,-0.23,172.30,"END
"
545,0,0,0,0,0,2023,9,29,19,29,43,0,0,0,3.39,3.26,4.98,4.96,38.15,26.58,22.50,27.72,21.96,1021.65,0.69,-0.04,9.71,4.05,-0.23,171.72,"END
"
546,0,0,0,0,0,2023,9,29,19,29,44,0,0,0,3.38,3.27,4.98,4.97,37.48,24.92,22.52,27.75,21.97,1021.12,0.61,0.00,9.71,3.60,0.00,171.99,"END
"
547,0,0,0,0,0,2023,9,29,19,29,45,0,0,0,3.21,3.25,4.98,4.96,38.92,27.34,22.50,27.79,21.97,1021.43,0.61,0.04,9.64,3.63,0.23,172.44,"END
"
548,0,0,0,0,0,2023,9,29,19,29,46,0,0,0,3.39,3.27,4.98,4.97,37.09,25.75,22.51,27.71,21.96,1021.36,0.54,0.00,9.52,3.22,0.00,172.18,"END
"
549,0,0,0,0,0,2023,9,29,19,29,47,0,0,0,3.27,3.26,4.98,4.96,37.41,26.12,22.55,27.77,21.98,1021.52,0.57,0.00,9.75,3.37,0.00,173.44,"END
"
550,0,0,0,0,0,2023,9,29,19,29,48,0,0,0,3.38,3.27,4.98,4.97,37.31,25.26,22.49,27.77,22.02,1021.31,0.61,-0.04,9.68,3.62,-0.23,172.39,"END
"
551,0,0,0,0,0,2023,9,29,19,29,49,0,0,0,3.21,3.26,4.98,4.96,38.01,26.18,22.55,27.77,22.01,1021.46,0.69,-0.04,9.71,4.05,-0.23,171.76,"END
"
552,0,0,0,0,0,2023,9,29,19,29,50,0,0,0,3.39,3.27,4.98,4.96,37.32,25.90,22.55,27.80,22.04,1021.59,0.57,-0.08,9.68,3.39,-0.45,171.19,"END
"
553,0,0,0,0,0,2023,9,29,19,29,51,0,0,0,3.40,3.26,4.98,4.96,38.44,25.41,22.53,27.79,22.07,1021.24,0.57,-0.04,9.71,3.38,-0.23,172.11,"END
"
554,0,0,0,0,0,2023,9,29,19,29,52,0,0,0,3.38,3.27,4.98,4.96,37.25,26.03,22.61,27.77,21.98,1021.41,0.57,-0.15,9.87,3.33,-0.89,171.10,"END
"
555,0,0,0,0,0,2023,9,29,19,29,53,0,0,0,3.40,3.21,4.98,4.95,38.81,26.39,22.57,27.81,22.02,1021.20,0.57,-0.04,9.71,3.38,-0.23,172.56,"END
"
556,0,0,0,0,0,2023,9,29,19,29,54,0,0,0,3.38,3.27,4.98,4.96,37.41,26.29,22.59,27.81,22.02,1021.03,0.69,0.00,9.68,4.07,0.00,172.65,"END
"
557,0,0,0,0,0,2023,9,29,19,29,55,0,0,0,3.39,3.26,4.98,4.96,37.86,25.99,22.59,27.80,22.02,1021.48,0.61,0.04,9.71,3.60,0.23,171.76,"END
"
558,0,0,0,0,0,2023,9,29,19,29,56,0,0,0,3.38,3.28,4.99,4.97,37.07,25.86,22.59,27.84,22.09,1021.29,0.65,-0.04,9.75,3.81,-0.22,171.96,"END
"
559,0,0,0,0,0,2023,9,29,19,29,57,0,0,0,3.40,3.26,4.98,4.88,38.72,25.25,22.60,27.86,22.07,1021.52,0.65,0.00,9.71,3.83,0.00,172.68,"END
"
560,0,0,0,0,0,2023,9,29,19,29,58,0,0,0,3.39,3.27,4.98,4.96,37.74,26.21,22.61,27.84,22.01,1021.40,0.65,0.00,9.68,3.84,0.00,172.19,"END
"
561,0,0,0,0,0,2023,9,29,19,29,59,0,0,0,3.40,3.26,4.98,4.96,37.22,26.99,22.61,27.81,22.07,1021.38,0.61,0.00,9.68,3.62,0.00,172.14,"END
"
562,0,0,0,0,0,2023,9,29,19,30,0,0,0,0,3.39,3.27,4.98,4.96,37.64,25.45,22.62,27.85,22.07,1021.40,0.61,0.04,9.68,3.62,0.23,174.36,"END
"
563,0,0,0,0,0,2023,9,29,19,30,1,0,0,0,3.40,3.26,4.98,4.90,38.22,26.25,22.65,27.83,22.09,1021.38,0.69,0.00,9.71,4.05,0.00,171.98,"END
"
564,0,0,0,0,0,2023,9,29,19,30,2,0,0,0,3.39,3.27,4.98,4.96,37.01,26.16,22.63,27.87,22.09,1021.51,0.57,0.00,9.75,3.37,0.00,170.79,"END
"
565,0,0,0,0,0,2023,9,29,19,30,3,0,0,0,3.40,3.27,4.98,4.96,37.46,26.24,22.65,27.88,22.09,1021.18,0.61,0.00,9.56,3.66,0.00,172.06,"END
"
566,0,0,0,0,0,2023,9,29,19,30,4,0,0,0,3.34,3.27,4.98,4.96,37.62,26.15,22.66,27.91,22.09,1021.23,0.65,0.00,9.79,3.80,0.00,172.55,"END
"
567,0,0,0,0,0,2023,9,29,19,30,5,0,0,0,3.39,3.26,4.98,4.93,37.08,26.25,22.66,27.94,22.09,1021.26,0.61,0.04,9.64,3.63,0.23,172.14,"END
"
568,0,0,0,0,0,2023,9,29,19,30,6,0,0,0,3.39,3.19,4.98,4.97,36.64,25.87,22.64,27.87,22.13,1021.35,0.57,0.04,9.75,3.37,0.22,172.30,"END
"
569,0,0,0,0,0,2023,9,29,19,30,7,0,0,0,3.39,3.26,4.98,4.96,38.23,26.32,22.66,27.92,22.11,1021.50,0.69,-0.04,9.68,4.07,-0.23,171.41,"END
"
570,0,0,0,0,0,2023,9,29,19,30,8,0,0,0,3.18,3.27,4.98,4.96,37.16,25.59,22.65,27.90,22.16,1021.27,0.65,0.11,9.94,3.74,0.66,172.86,"END
"
571,0,0,0,0,0,2023,9,29,19,30,9,0,0,0,3.39,3.26,4.98,4.96,37.76,26.35,22.67,27.93,22.12,1021.73,0.61,0.00,9.68,3.62,0.00,171.54,"END
"
572,0,0,0,0,0,2023,9,29,19,30,10,0,0,0,3.27,3.26,4.98,4.96,36.82,25.54,22.67,27.96,22.12,1021.42,0.57,0.00,9.68,3.39,0.00,172.19,"END
"
573,0,0,0,0,0,2023,9,29,19,30,11,0,0,0,3.39,3.26,4.98,4.96,39.56,26.39,22.70,27.94,22.10,1021.59,0.61,0.00,9.68,3.62,0.00,172.74,"END
"
574,0,0,0,0,0,2023,9,29,19,30,12,0,0,0,3.39,3.23,4.98,4.96,38.05,25.69,22.70,27.92,22.17,1021.39,0.61,0.00,9.71,3.60,0.00,172.93,"END
"
575,0,0,0,0,0,2023,9,29,19,30,13,0,0,0,3.39,3.26,4.98,4.96,37.98,26.09,22.68,27.95,22.17,1021.21,0.61,0.04,9.71,3.60,0.23,173.02,"END
"
576,0,0,0,0,0,2023,9,29,19,30,14,0,0,0,3.38,3.23,4.98,4.96,38.30,25.76,22.71,27.99,22.15,1021.31,0.65,0.00,9.91,3.76,0.00,172.35,"END
"
577,0,0,0,0,0,2023,9,29,19,30,15,0,0,0,3.39,3.26,4.98,4.96,38.01,26.09,22.68,27.95,22.14,1021.13,0.57,-0.04,9.75,3.37,-0.22,171.49,"END
"
578,0,0,0,0,0,2023,9,29,19,30,16,0,0,0,3.39,3.27,4.98,4.96,37.26,25.88,22.73,27.95,22.22,1021.39,0.65,0.00,9.75,3.81,0.00,172.61,"END
"
579,0,0,0,0,0,2023,9,29,19,30,17,0,0,0,3.39,3.26,4.98,4.96,38.41,26.82,22.70,28.00,22.20,1021.51,0.61,-0.04,9.71,3.60,-0.23,171.26,"END
"
580,0,0,0,0,0,2023,9,29,19,30,18,0,0,0,3.38,3.27,4.98,4.97,37.58,26.69,22.74,27.97,22.15,1021.41,0.61,0.00,9.98,3.51,0.00,172.05,"END
"
581,0,0,0,0,0,2023,9,29,19,30,19,0,0,0,3.40,3.26,4.98,4.96,37.59,27.24,22.73,28.02,22.22,1021.63,0.65,0.04,9.64,3.86,0.23,172.56,"END
"
582,0,0,0,0,0,2023,9,29,19,30,20,0,0,0,3.39,3.27,4.98,4.94,37.74,25.41,22.74,28.00,22.20,1021.50,0.61,-0.04,9.87,3.55,-0.22,171.39,"END
"
583,0,0,0,0,0,2023,9,29,19,30,21,0,0,0,3.40,3.26,4.98,4.96,38.73,25.67,22.75,28.03,22.18,1021.67,0.57,0.00,9.52,3.45,0.00,174.01,"END
"
584,0,0,0,0,0,2023,9,29,19,30,22,0,0,0,3.39,3.28,4.98,4.91,37.33,25.55,22.74,28.02,22.20,1021.42,0.57,0.00,9.68,3.39,0.00,172.59,"END
"
585,0,0,0,0,0,2023,9,29,19,30,23,0,0,0,3.38,3.27,4.98,4.96,38.42,25.94,22.78,28.03,22.18,1021.51,0.57,0.04,9.68,3.39,0.23,173.13,"END
"
586,0,0,0,0,0,2023,9,29,19,30,24,0,0,0,3.38,3.28,4.98,4.96,38.08,26.24,22.76,28.07,22.24,1021.39,0.61,0.00,9.45,3.71,0.00,171.87,"END
"
587,0,0,0,0,0,2023,9,29,19,30,25,0,0,0,3.39,3.26,4.98,4.96,37.46,25.55,22.77,28.02,22.18,1021.66,0.61,0.04,9.68,3.62,0.23,172.50,"END
"
588,0,0,0,0,0,2023,9,29,19,30,26,0,0,0,3.39,3.27,4.98,4.96,38.04,24.97,22.76,28.05,22.19,1021.40,0.61,0.04,9.56,3.66,0.23,172.75,"END
"
589,0,0,0,0,0,2023,9,29,19,30,27,0,0,0,3.18,3.26,4.98,4.95,38.92,27.07,22.78,28.10,22.23,1021.43,0.46,0.08,9.75,2.69,0.45,172.29,"END
"
590,0,0,0,0,0,2023,9,29,19,30,28,0,0,0,3.38,3.27,4.98,4.96,36.81,25.99,22.80,28.08,22.21,1021.55,0.54,0.00,9.68,3.17,0.00,172.12,"END
"
591,0,0,0,0,0,2023,9,29,19,30,29,0,0,0,3.27,3.26,4.98,4.96,38.45,26.74,22.79,28.05,22.24,1021.52,0.57,-0.08,9.75,3.37,-0.45,173.18,"END
"
592,0,0,0,0,0,2023,9,29,19,30,30,0,0,0,3.38,3.27,4.99,4.96,37.21,25.83,22.82,28.07,22.27,1021.64,0.61,-0.08,9.87,3.55,-0.44,171.01,"END
"
593,0,0,0,0,0,2023,9,29,19,30,31,0,0,0,3.26,3.26,4.98,4.96,39.39,25.98,22.81,28.10,22.23,1021.51,0.65,0.00,9.68,3.84,0.00,171.76,"END
"
594,0,0,0,0,0,2023,9,29,19,30,32,0,0,0,3.38,3.27,4.98,4.96,38.06,25.68,22.84,28.12,22.27,1021.44,0.69,0.00,9.87,3.99,0.00,172.36,"END
"
595,0,0,0,0,0,2023,9,29,19,30,33,0,0,0,3.38,3.26,4.98,4.96,37.71,26.39,22.83,28.11,22.27,1021.40,0.69,-0.04,9.71,4.05,-0.23,171.69,"END
"
596,0,0,0,0,0,2023,9,29,19,30,34,0,0,0,3.38,3.27,4.98,4.96,38.34,26.05,22.82,28.08,22.29,1021.39,0.61,0.00,9.71,3.60,0.00,171.91,"END
"
597,0,0,0,0,0,2023,9,29,19,30,35,0,0,0,3.33,3.23,4.98,4.96,38.23,26.58,22.85,28.14,22.30,1021.46,0.61,-0.04,9.60,3.65,-0.23,172.14,"END
"
598,0,0,0,0,0,2023,9,29,19,30,36,0,0,0,3.38,3.27,4.98,4.96,37.66,25.77,22.85,28.12,22.28,1021.54,0.61,-0.15,9.48,3.69,-0.92,171.54,"END
"
599,0,0,0,0,0,2023,9,29,19,30,37,0,0,0,3.39,3.26,4.98,4.91,39.48,26.56,22.85,28.08,22.28,1021.50,0.61,0.00,9.71,3.60,0.00,171.98,"END
"
600,0,0,0,0,0,2023,9,29,19,30,38,0,0,0,3.38,3.27,4.98,4.96,37.88,26.11,22.84,28.11,22.30,1021.48,0.65,-0.04,9.71,3.83,-0.23,171.66,"END
"
601,0,0,0,0,0,2023,9,29,19,30,39,0,0,0,3.39,3.27,4.98,4.87,38.40,26.73,22.86,28.17,22.30,1021.52,0.65,0.04,9.71,3.83,0.23,172.95,"END
"
602,0,0,0,0,0,2023,9,29,19,30,40,0,0,0,3.39,3.26,4.98,4.96,37.32,26.32,22.84,28.15,22.35,1021.12,0.57,-0.04,9.71,3.38,-0.23,172.19,"END
"
603,0,0,0,0,0,2023,9,29,19,30,41,0,0,0,3.40,3.26,4.98,4.92,39.77,26.74,22.87,28.16,22.40,1021.55,0.65,-0.04,9.71,3.83,-0.23,172.11,"END
"
604,0,0,0,0,0,2023,9,29,19,30,42,0,0,0,3.37,3.28,4.98,4.96,37.50,26.13,22.89,28.16,22.33,1021.47,0.57,0.00,9.64,3.41,0.00,172.33,"END
"
605,0,0,0,0,0,2023,9,29,19,30,43,0,0,0,3.40,3.26,4.98,4.91,37.10,26.42,22.89,28.16,22.38,1021.42,0.57,0.00,9.56,3.43,0.00,171.97,"END
"
606,0,0,0,0,0,2023,9,29,19,30,44,0,0,0,3.38,3.27,4.98,4.97,37.55,25.80,22.90,28.19,22.31,1021.47,0.61,-0.04,9.60,3.65,-0.23,171.99,"END
"
607,0,0,0,0,0,2023,9,29,19,30,45,0,0,0,3.38,3.26,4.98,4.96,38.55,26.46,22.88,28.19,22.31,1021.53,0.61,0.00,9.71,3.60,0.00,171.81,"END
"
608,0,0,0,0,0,2023,9,29,19,30,46,0,0,0,3.39,3.28,4.98,4.95,37.78,26.74,22.89,28.19,22.37,1021.34,0.61,-0.04,9.68,3.62,-0.23,174.42,"END
"
609,0,0,0,0,0,2023,9,29,19,30,47,0,0,0,3.39,3.26,4.98,4.92,37.23,26.66,22.91,28.19,22.40,1021.49,0.61,-0.04,9.64,3.63,-0.23,171.81,"END
"
610,0,0,0,0,0,2023,9,29,19,30,48,0,0,0,3.38,3.19,4.98,4.97,38.31,25.83,22.90,28.23,22.37,1021.42,0.61,0.00,9.75,3.59,0.00,171.97,"END
"
611,0,0,0,0,0,2023,9,29,19,30,49,0,0,0,3.39,3.26,4.98,4.96,37.41,25.97,22.93,28.26,22.37,1021.33,0.65,0.00,9.83,3.78,0.00,172.48,"END
"
612,0,0,0,0,0,2023,9,29,19,30,50,0,0,0,3.35,3.27,4.98,4.96,37.88,25.84,22.91,28.25,22.36,1021.37,0.61,0.00,9.75,3.59,0.00,172.07,"END
"
613,0,0,0,0,0,2023,9,29,19,30,51,0,0,0,3.39,3.26,4.98,4.96,38.17,26.09,22.92,28.26,22.36,1021.54,0.61,-0.08,9.79,3.58,-0.45,171.73,"END
"
614,0,0,0,0,0,2023,9,29,19,30,52,0,0,0,3.23,3.27,4.98,4.96,37.88,25.85,22.92,28.26,22.37,1021.47,0.61,-0.04,9.68,3.62,-0.23,171.96,"END
"
615,0,0,0,0,0,2023,9,29,19,30,53,0,0,0,3.39,3.26,4.98,4.95,39.23,27.06,22.94,28.23,22.38,1021.32,0.57,-0.08,9.71,3.38,-0.45,171.32,"END
"
616,0,0,0,0,0,2023,9,29,19,30,54,0,0,0,3.38,3.21,4.98,4.96,37.06,26.32,22.93,28.23,22.40,1021.44,0.65,0.00,9.68,3.84,0.00,172.94,"END
"
617,0,0,0,0,0,2023,9,29,19,30,55,0,0,0,3.40,3.27,4.98,4.96,39.67,25.31,22.96,28.31,22.42,1021.01,0.69,-0.04,9.71,4.05,-0.23,172.40,"END
"
618,0,0,0,0,0,2023,9,29,19,30,56,0,0,0,3.38,3.23,4.98,4.96,38.13,25.96,22.96,28.34,22.46,1021.52,0.61,0.04,9.71,3.60,0.23,172.32,"END
"
619,0,0,0,0,0,2023,9,29,19,30,57,0,0,0,3.39,3.26,4.98,4.96,38.04,26.00,22.97,28.25,22.45,1021.56,0.65,0.00,9.79,3.80,0.00,171.69,"END
"
620,0,0,0,0,0,2023,9,29,19,30,58,0,0,0,3.39,3.27,4.98,4.97,37.95,25.31,22.96,28.34,22.48,1021.52,0.57,0.00,9.71,3.38,0.00,172.04,"END
"
621,0,0,0,0,0,2023,9,29,19,30,59,0,0,0,3.39,3.26,4.98,4.96,38.38,26.60,22.97,28.30,22.45,1021.49,0.65,0.00,9.71,3.83,0.00,172.40,"END
"
622,0,0,0,0,0,2023,9,29,19,31,0,0,0,0,3.39,3.27,4.98,4.97,36.27,26.09,22.98,28.38,22.41,1021.48,0.57,-0.04,9.68,3.39,-0.23,172.48,"END
"
623,0,0,0,0,0,2023,9,29,19,31,1,0,0,0,3.40,3.26,4.98,4.96,38.86,26.48,23.01,28.34,22.48,1021.39,0.57,0.00,9.71,3.38,0.00,172.30,"END
"
624,0,0,0,0,0,2023,9,29,19,31,2,0,0,0,3.38,3.27,4.98,4.90,38.90,26.28,22.98,28.39,22.52,1021.56,0.61,0.00,9.75,3.59,0.00,172.84,"END
"
625,0,0,0,0,0,2023,9,29,19,31,3,0,0,0,3.38,3.26,4.98,4.96,37.88,26.12,23.01,28.33,22.45,1021.21,0.65,0.00,9.60,3.87,0.00,173.05,"END
"
626,0,0,0,0,0,2023,9,29,19,31,4,0,0,0,3.38,3.27,4.98,4.93,38.55,26.64,23.01,28.29,22.45,1021.53,0.61,-0.08,9.64,3.63,-0.45,172.00,"END
"
627,0,0,0,0,0,2023,9,29,19,31,5,0,0,0,3.39,3.26,4.98,4.96,38.16,26.28,22.99,28.34,22.47,1021.28,0.65,0.00,9.71,3.83,0.00,174.61,"END
"
628,0,0,0,0,0,2023,9,29,19,31,6,0,0,0,3.39,3.27,4.99,4.96,37.16,26.80,23.02,28.38,22.48,1021.42,0.61,-0.04,9.87,3.55,-0.22,171.61,"END
"
629,0,0,0,0,0,2023,9,29,19,31,7,0,0,0,3.32,3.26,4.98,4.96,38.79,26.52,23.01,28.37,22.46,1021.44,0.57,-0.04,9.71,3.38,-0.23,171.81,"END
"
630,0,0,0,0,0,2023,9,29,19,31,8,0,0,0,3.38,3.27,4.98,4.96,37.88,26.63,23.04,28.42,22.49,1021.46,0.61,0.04,9.71,3.60,0.23,172.51,"END
"
631,0,0,0,0,0,2023,9,29,19,31,9,0,0,0,3.19,3.26,4.98,4.96,37.13,25.70,23.04,28.38,22.45,1021.53,0.61,0.08,9.64,3.63,0.45,172.61,"END
"
632,0,0,0,0,0,2023,9,29,19,31,10,0,0,0,3.38,3.27,4.99,4.97,37.39,26.25,23.04,28.40,22.52,1021.31,0.61,-0.04,9.64,3.63,-0.23,171.84,"END
"
633,0,0,0,0,0,2023,9,29,19,31,11,0,0,0,3.29,3.25,4.98,4.95,37.51,26.39,23.05,28.41,22.48,1021.58,0.61,0.00,9.68,3.62,0.00,174.19,"END
"
634,0,0,0,0,0,2023,9,29,19,31,12,0,0,0,3.38,3.27,4.98,4.96,38.09,26.13,23.03,28.37,22.51,1021.51,0.65,-0.11,9.68,3.84,-0.68,171.16,"END
"
635,0,0,0,0,0,2023,9,29,19,31,13,0,0,0,3.30,3.19,4.98,4.96,38.20,27.55,23.06,28.39,22.50,1021.42,0.50,0.04,9.60,2.96,0.23,172.18,"END
"
636,0,0,0,0,0,2023,9,29,19,31,14,0,0,0,3.38,3.27,4.99,4.96,37.73,26.25,23.07,28.36,22.52,1021.57,0.61,0.00,9.71,3.60,0.00,172.14,"END
"
637,0,0,0,0,0,2023,9,29,19,31,15,0,0,0,3.39,3.26,4.98,4.96,37.81,28.13,23.06,28.40,22.50,1021.67,0.65,0.11,10.02,3.71,0.65,172.17,"END
"
638,0,0,0,0,0,2023,9,29,19,31,16,0,0,0,3.38,3.26,4.98,4.97,38.31,26.67,23.06,28.45,22.52,1021.28,0.65,0.00,9.79,3.80,0.00,172.12,"END
"
639,0,0,0,0,0,2023,9,29,19,31,17,0,0,0,3.31,3.24,4.98,4.96,37.82,26.53,23.08,28.40,22.54,1021.34,0.57,0.00,9.48,3.46,0.00,171.91,"END
"
640,0,0,0,0,0,2023,9,29,19,31,18,0,0,0,3.38,3.27,4.98,4.96,38.44,25.63,23.11,28.42,22.56,1021.30,0.61,0.00,9.71,3.60,0.00,171.96,"END
"
641,0,0,0,0,0,2023,9,29,19,31,19,0,0,0,3.38,3.27,4.98,4.96,38.23,27.93,23.08,28.43,22.55,1021.43,0.54,0.00,9.71,3.15,0.00,171.97,"END
"
642,0,0,0,0,0,2023,9,29,19,31,20,0,0,0,3.39,3.28,4.99,4.96,37.74,26.24,23.11,28.44,22.52,1021.35,0.61,0.00,9.68,3.62,0.00,172.54,"END
"
643,0,0,0,0,0,2023,9,29,19,31,21,0,0,0,3.39,3.26,4.98,4.89,38.64,27.64,23.09,28.46,22.57,1021.35,0.61,-0.04,9.98,3.51,-0.22,171.90,"END
"
644,0,0,0,0,0,2023,9,29,19,31,22,0,0,0,3.39,3.27,4.99,4.96,38.96,26.52,23.10,28.47,22.54,1021.16,0.57,0.00,9.71,3.38,0.00,172.14,"END
"
645,0,0,0,0,0,2023,9,29,19,31,23,0,0,0,3.40,3.26,4.98,4.91,38.87,26.38,23.08,28.45,22.52,1021.46,0.54,-0.04,9.64,3.18,-0.23,172.35,"END
"
646,0,0,0,0,0,2023,9,29,19,31,24,0,0,0,3.38,3.27,4.98,4.96,39.11,25.90,23.11,28.46,22.58,1021.13,0.57,0.04,9.75,3.37,0.22,172.36,"END
"
647,0,0,0,0,0,2023,9,29,19,31,25,0,0,0,3.39,3.26,4.98,4.92,38.71,27.65,23.13,28.45,22.55,1021.63,0.57,0.00,9.64,3.41,0.00,172.50,"END
"
648,0,0,0,0,0,2023,9,29,19,31,26,0,0,0,3.38,3.27,4.99,4.96,38.22,25.99,23.12,28.45,22.61,1021.29,0.65,0.00,9.71,3.83,0.00,171.38,"END
"
649,0,0,0,0,0,2023,9,29,19,31,27,0,0,0,3.39,3.26,4.98,4.96,38.08,26.98,23.14,28.50,22.65,1021.16,0.57,0.00,9.68,3.39,0.00,172.42,"END
"
650,0,0,0,0,0,2023,9,29,19,31,28,0,0,0,3.37,3.27,4.98,4.96,38.43,26.60,23.15,28.56,22.59,1021.44,0.61,0.00,9.41,3.72,0.00,172.47,"END
"
651,0,0,0,0,0,2023,9,29,19,31,29,0,0,0,3.38,3.26,4.98,4.91,38.51,26.53,23.15,28.52,22.59,1021.35,0.65,0.00,9.64,3.86,0.00,171.94,"END
"
652,0,0,0,0,0,2023,9,29,19,31,30,0,0,0,3.38,3.19,4.98,4.95,38.40,26.30,23.18,28.51,22.57,1021.60,0.61,0.11,9.68,3.62,0.68,172.74,"END
"
653,0,0,0,0,0,2023,9,29,19,31,31,0,0,0,3.39,3.26,4.98,4.96,37.46,26.27,23.18,28.52,22.65,1021.44,0.61,0.00,9.64,3.63,0.00,172.32,"END
"
654,0,0,0,0,0,2023,9,29,19,31,32,0,0,0,3.35,3.27,4.98,4.96,37.82,27.30,23.16,28.52,22.61,1021.84,0.57,0.04,9.68,3.39,0.23,172.20,"END
"
655,0,0,0,0,0,2023,9,29,19,31,33,0,0,0,3.39,3.26,4.98,4.96,37.81,25.69,23.14,28.48,22.62,1021.39,0.65,0.00,9.75,3.81,0.00,171.29,"END
"
656,0,0,0,0,0,2023,9,29,19,31,34,0,0,0,3.38,3.19,4.98,4.96,38.11,26.62,23.16,28.54,22.65,1021.40,0.61,0.00,9.71,3.60,0.00,172.49,"END
"
657,0,0,0,0,0,2023,9,29,19,31,35,0,0,0,3.40,3.26,4.98,4.95,38.31,27.03,23.15,28.51,22.65,1021.23,0.65,-0.04,9.68,3.84,-0.23,172.08,"END
"
658,0,0,0,0,0,2023,9,29,19,31,36,0,0,0,3.38,3.19,4.98,4.96,38.17,26.85,23.19,28.60,22.65,1021.47,0.61,-0.04,9.75,3.59,-0.22,172.22,"END
"
659,0,0,0,0,0,2023,9,29,19,31,37,0,0,0,3.39,3.27,4.98,4.95,38.44,26.34,23.16,28.54,22.66,1021.24,0.57,-0.08,9.56,3.43,-0.46,171.99,"END
"
660,0,0,0,0,0,2023,9,29,19,31,38,0,0,0,3.38,3.19,4.99,4.96,38.36,25.75,23.20,28.53,22.69,1021.67,0.61,-0.08,9.91,3.53,-0.44,171.65,"END
"
661,0,0,0,0,0,2023,9,29,19,31,39,0,0,0,3.39,3.26,4.98,4.96,38.39,26.24,23.21,28.56,22.67,1021.59,0.76,-0.04,9.71,4.50,-0.22,172.62,"END
"
662,0,0,0,0,0,2023,9,29,19,31,40,0,0,0,3.38,3.19,4.98,4.96,37.98,27.21,23.20,28.50,22.66,1021.48,0.57,0.00,9.83,3.34,0.00,171.72,"END
"
663,0,0,0,0,0,2023,9,29,19,31,41,0,0,0,3.39,3.26,4.98,4.96,37.88,26.68,23.19,28.53,22.68,1021.64,0.57,0.00,9.91,3.31,0.00,172.38,"END
"
